[
  {
    "timestamp": "2025-07-21T00:00:00Z",
    "country": "UK",
    "lat": 55.7667,
    "lon": -4.16667,
    "risk_score": 45,
    "title": "GDELT Event: 182 in UK",
    "source_url": "https://www.dailyrecord.co.uk/news/scottish-news/criminal-record-teen-beach-killers-37459988",
    "tag": "conflict"
  },
  {
    "timestamp": "2025-07-21T00:00:00Z",
    "country": "UK",
    "lat": 55.95,
    "lon": -3.2,
    "risk_score": 45,
    "title": "GDELT Event: 182 in UK",
    "source_url": "https://www.dailyrecord.co.uk/news/scottish-news/criminal-record-teen-beach-killers-37459988",
    "tag": "conflict"
  },
  {
    "timestamp": "2025-07-21T00:00:00Z",
    "country": "UK",
    "lat": 55.8891,
    "lon": -3.56942,
    "risk_score": 45,
    "title": "GDELT Event: 182 in UK",
    "source_url": "https://www.dailyrecord.co.uk/news/scottish-news/criminal-record-teen-beach-killers-37459988",
    "tag": "conflict"
  },
  {
    "timestamp": "2025-07-21T00:00:00Z",
    "country": "UK",
    "lat": 55.8891,
    "lon": -3.56942,
    "risk_score": 45,
    "title": "GDELT Event: 182 in UK",
    "source_url": "https://www.dailyrecord.co.uk/news/scottish-news/criminal-record-teen-beach-killers-37459988",
    "tag": "conflict"
  },
  {
    "timestamp": "2025-07-21T00:00:00Z",
    "country": "IV",
    "lat": 5.34111,
    "lon": -4.02806,
    "risk_score": 3,
    "title": "GDELT Event: 173 in IV",
    "source_url": "https://www.africanews.com/2026/07/21/six-jailed-ivory-coast-opposition-party-officials-freed-after-months-in-detention/",
    "tag": "neutral"
  },
  {
    "timestamp": "2025-07-21T00:00:00Z",
    "country": "GV",
    "lat": 11.0,
    "lon": -10.0,
    "risk_score": 3,
    "title": "GDELT Event: 173 in GV",
    "source_url": "https://www.africanews.com/2026/07/21/ecowas-urges-guinea-bissaus-military-leaders-to-release-jailed-opposition-figures/",
    "tag": "neutral"
  },
  {
    "timestamp": "2025-07-21T00:00:00Z",
    "country": "GV",
    "lat": 11.0,
    "lon": -10.0,
    "risk_score": 3,
    "title": "GDELT Event: 173 in GV",
    "source_url": "https://www.africanews.com/2026/07/21/ecowas-urges-guinea-bissaus-military-leaders-to-release-jailed-opposition-figures/",
    "tag": "neutral"
  },
  {
    "timestamp": "2025-07-21T00:00:00Z",
    "country": "IV",
    "lat": 5.34111,
    "lon": -4.02806,
    "risk_score": 3,
    "title": "GDELT Event: 084 in IV",
    "source_url": "https://www.africanews.com/2026/07/21/six-jailed-ivory-coast-opposition-party-officials-freed-after-months-in-detention/",
    "tag": "neutral"
  },
  {
    "timestamp": "2025-07-21T00:00:00Z",
    "country": "GV",
    "lat": 11.0,
    "lon": -10.0,
    "risk_score": 3,
    "title": "GDELT Event: 173 in GV",
    "source_url": "https://www.africanews.com/2026/07/21/ecowas-urges-guinea-bissaus-military-leaders-to-release-jailed-opposition-figures/",
    "tag": "neutral"
  },
  {
    "timestamp": "2025-07-21T00:00:00Z",
    "country": "US",
    "lat": 61.385,
    "lon": -152.268,
    "risk_score": 2,
    "title": "GDELT Event: 173 in US",
    "source_url": "https://reason.com/2026/07/21/supreme-court-agrees-to-hear-case-of-alaska-pilot-whose-95000-plane-was-seized-over-a-6-pack-of-beer/",
    "tag": "neutral"
  },
  {
    "timestamp": "2026-07-14T00:00:00Z",
    "country": "EI",
    "lat": 54.65,
    "lon": -8.11667,
    "risk_score": 1,
    "title": "GDELT Event: 010 in EI",
    "source_url": "https://www.irishtimes.com/business/2026/07/21/fears-grow-for-jobs-at-proampac-plant-in-co-wicklow/",
    "tag": "neutral"
  },
  {
    "timestamp": "2026-07-14T00:00:00Z",
    "country": "EI",
    "lat": 52.3342,
    "lon": -6.4575,
    "risk_score": 1,
    "title": "GDELT Event: 010 in EI",
    "source_url": "https://www.irishtimes.com/business/2026/07/21/fears-grow-for-jobs-at-proampac-plant-in-co-wicklow/",
    "tag": "neutral"
  },
  {
    "timestamp": "2026-07-14T00:00:00Z",
    "country": "MX",
    "lat": 20.125,
    "lon": -87.45,
    "risk_score": 6,
    "title": "GDELT Event: 042 in MX",
    "source_url": "https://riviera-maya-news.com/sheinbaum-announces-tren-maya-freight-inauguration-in-early-2027-to-improve-peninsula-cargo-logistics/2026.html",
    "tag": "neutral"
  },
  {
    "timestamp": "2026-07-14T00:00:00Z",
    "country": "MX",
    "lat": 20.8667,
    "lon": -88.6333,
    "risk_score": 6,
    "title": "GDELT Event: 043 in MX",
    "source_url": "https://riviera-maya-news.com/sheinbaum-announces-tren-maya-freight-inauguration-in-early-2027-to-improve-peninsula-cargo-logistics/2026.html",
    "tag": "neutral"
  },
  {
    "timestamp": "2026-07-14T00:00:00Z",
    "country": "EI",
    "lat": 54.65,
    "lon": -8.11667,
    "risk_score": 1,
    "title": "GDELT Event: 010 in EI",
    "source_url": "https://www.irishtimes.com/business/2026/07/21/fears-grow-for-jobs-at-proampac-plant-in-co-wicklow/",
    "tag": "neutral"
  },
  {
    "timestamp": "2026-07-14T00:00:00Z",
    "country": "MX",
    "lat": 20.8667,
    "lon": -88.6333,
    "risk_score": 6,
    "title": "GDELT Event: 042 in MX",
    "source_url": "https://riviera-maya-news.com/sheinbaum-announces-tren-maya-freight-inauguration-in-early-2027-to-improve-peninsula-cargo-logistics/2026.html",
    "tag": "neutral"
  },
  {
    "timestamp": "2026-07-14T00:00:00Z",
    "country": "MX",
    "lat": 20.8667,
    "lon": -88.6333,
    "risk_score": 6,
    "title": "GDELT Event: 043 in MX",
    "source_url": "https://riviera-maya-news.com/sheinbaum-announces-tren-maya-freight-inauguration-in-early-2027-to-improve-peninsula-cargo-logistics/2026.html",
    "tag": "neutral"
  },
  {
    "timestamp": "2026-07-14T00:00:00Z",
    "country": "MX",
    "lat": 20.8667,
    "lon": -88.6333,
    "risk_score": 6,
    "title": "GDELT Event: 042 in MX",
    "source_url": "https://riviera-maya-news.com/sheinbaum-announces-tren-maya-freight-inauguration-in-early-2027-to-improve-peninsula-cargo-logistics/2026.html",
    "tag": "neutral"
  },
  {
    "timestamp": "2026-07-14T00:00:00Z",
    "country": "MX",
    "lat": 20.8667,
    "lon": -88.6333,
    "risk_score": 6,
    "title": "GDELT Event: 043 in MX",
    "source_url": "https://riviera-maya-news.com/sheinbaum-announces-tren-maya-freight-inauguration-in-early-2027-to-improve-peninsula-cargo-logistics/2026.html",
    "tag": "neutral"
  },
  {
    "timestamp": "2026-07-14T00:00:00Z",
    "country": "MX",
    "lat": 20.8667,
    "lon": -88.6333,
    "risk_score": 6,
    "title": "GDELT Event: 042 in MX",
    "source_url": "https://riviera-maya-news.com/sheinbaum-announces-tren-maya-freight-inauguration-in-early-2027-to-improve-peninsula-cargo-logistics/2026.html",
    "tag": "neutral"
  },
  {
    "timestamp": "2026-07-14T00:00:00Z",
    "country": "MX",
    "lat": 20.8667,
    "lon": -88.6333,
    "risk_score": 6,
    "title": "GDELT Event: 043 in MX",
    "source_url": "https://riviera-maya-news.com/sheinbaum-announces-tren-maya-freight-inauguration-in-early-2027-to-improve-peninsula-cargo-logistics/2026.html",
    "tag": "neutral"
  },
  {
    "timestamp": "2026-07-14T00:00:00Z",
    "country": "SA",
    "lat": 25.0,
    "lon": 45.0,
    "risk_score": 14,
    "title": "GDELT Event: 130 in SA",
    "source_url": "https://www.express.co.uk/news/world/2231556/donald-trump-warning-houthis-red-sea",
    "tag": "neutral"
  },
  {
    "timestamp": "2026-07-14T00:00:00Z",
    "country": "IR",
    "lat": 32.0,
    "lon": 53.0,
    "risk_score": 14,
    "title": "GDELT Event: 130 in IR",
    "source_url": "https://www.aol.co.uk/articles/donald-trump-sends-chilling-warning-160100000.html",
    "tag": "neutral"
  },
  {
    "timestamp": "2026-07-14T00:00:00Z",
    "country": "SA",
    "lat": 25.0,
    "lon": 45.0,
    "risk_score": 14,
    "title": "GDELT Event: 130 in SA",
    "source_url": "https://www.aol.co.uk/articles/donald-trump-sends-chilling-warning-160100000.html",
    "tag": "neutral"
  },
  {
    "timestamp": "2026-07-21T00:00:00Z",
    "country": "SF",
    "lat": -26.8159,
    "lon": 27.8297,
    "risk_score": 5,
    "title": "GDELT Event: 042 in SF",
    "source_url": "https://theconversation.com/a-sharp-fall-in-gas-supplies-in-2028-threatens-south-africas-economy-how-to-manage-the-fallout-286861",
    "tag": "neutral"
  },
  {
    "timestamp": "2026-07-21T00:00:00Z",
    "country": "AS",
    "lat": -31.9333,
    "lon": 115.833,
    "risk_score": 50,
    "title": "GDELT Event: 190 in AS",
    "source_url": "https://www.f4wonline.com/news/john-cenas-instructions-to-aj-styles-in-crown-jewel-match-to-avoid-using-wwe-hall-of-famers-move/",
    "tag": "conflict"
  },
  {
    "timestamp": "2026-07-21T00:00:00Z",
    "country": "BR",
    "lat": -14.7667,
    "lon": -57.4333,
    "risk_score": 1,
    "title": "GDELT Event: 057 in BR",
    "source_url": "https://www.dailystar.co.uk/news/world-news/baby-starts-moving-body-bag-37460009",
    "tag": "neutral"
  },
  {
    "timestamp": "2026-07-21T00:00:00Z",
    "country": "EI",
    "lat": 53.0,
    "lon": -8.0,
    "risk_score": 1,
    "title": "GDELT Event: 014 in EI",
    "source_url": "https://www.liverpoolecho.co.uk/whats-on/whats-on-news/mums-popular-boutique-opening-liverpool-34327330",
    "tag": "neutral"
  },
  {
    "timestamp": "2026-07-21T00:00:00Z",
    "country": "UK",
    "lat": 55.8667,
    "lon": -3.91667,
    "risk_score": 7,
    "title": "GDELT Event: 042 in UK",
    "source_url": "https://www.dailyrecord.co.uk/in-your-area/lanarkshire/north-lanarkshire-jobs-market-shows-37458277",
    "tag": "neutral"
  },
  {
    "timestamp": "2026-07-21T00:00:00Z",
    "country": "EI",
    "lat": 53.3331,
    "lon": -6.24889,
    "risk_score": 7,
    "title": "GDELT Event: 043 in EI",
    "source_url": "https://www.esmmagazine.com/retail/former-president-of-ireland-to-speak-at-lead-network-conference-317023",
    "tag": "neutral"
  },
  {
    "timestamp": "2026-07-21T00:00:00Z",
    "country": "CA",
    "lat": 45.4167,
    "lon": -75.7,
    "risk_score": 6,
    "title": "GDELT Event: 040 in CA",
    "source_url": "https://globalnews.ca/news/11973921/trump-50-tariffs/",
    "tag": "neutral"
  },
  {
    "timestamp": "2026-07-21T00:00:00Z",
    "country": "CA",
    "lat": 60.0,
    "lon": -96.0,
    "risk_score": 1,
    "title": "GDELT Event: 060 in CA",
    "source_url": "https://globalnews.ca/news/11973921/trump-50-tariffs/",
    "tag": "neutral"
  },
  {
    "timestamp": "2026-07-21T00:00:00Z",
    "country": "CU",
    "lat": 23.1319,
    "lon": -82.3642,
    "risk_score": 10,
    "title": "GDELT Event: 130 in CU",
    "source_url": "https://www.eurasiareview.com/21072026-china-strengthens-its-influence-in-cubas-strategic-nickel-sector-analysis/",
    "tag": "neutral"
  },
  {
    "timestamp": "2026-07-21T00:00:00Z",
    "country": "SO",
    "lat": 9.0,
    "lon": 46.0,
    "risk_score": 6,
    "title": "GDELT Event: 042 in SO",
    "source_url": "https://www.christianpost.com/news/christian-convert-poisoned-to-death-in-somaliland.html",
    "tag": "neutral"
  },
  {
    "timestamp": "2026-07-21T00:00:00Z",
    "country": "ET",
    "lat": 8.0,
    "lon": 38.0,
    "risk_score": 6,
    "title": "GDELT Event: 042 in ET",
    "source_url": "https://www.christianpost.com/news/christian-convert-poisoned-to-death-in-somaliland.html",
    "tag": "neutral"
  },
  {
    "timestamp": "2026-07-21T00:00:00Z",
    "country": "SO",
    "lat": 9.0,
    "lon": 46.0,
    "risk_score": 1,
    "title": "GDELT Event: 051 in SO",
    "source_url": "https://www.christianpost.com/news/christian-convert-poisoned-to-death-in-somaliland.html",
    "tag": "neutral"
  },
  {
    "timestamp": "2026-07-21T00:00:00Z",
    "country": "IV",
    "lat": 5.34111,
    "lon": -4.02806,
    "risk_score": 3,
    "title": "GDELT Event: 172 in IV",
    "source_url": "https://www.africanews.com/2026/07/21/six-jailed-ivory-coast-opposition-party-officials-freed-after-months-in-detention/",
    "tag": "neutral"
  },
  {
    "timestamp": "2026-07-21T00:00:00Z",
    "country": "AE",
    "lat": 25.2522,
    "lon": 55.28,
    "risk_score": 0,
    "title": "GDELT Event: 051 in AE",
    "source_url": "http://www.bignewsnetwork.com/news/279201576/dubai-police-commander-in-chief-oversees-academy-cadet-interviews",
    "tag": "neutral"
  },
  {
    "timestamp": "2026-07-21T00:00:00Z",
    "country": "RP",
    "lat": 7.15306,
    "lon": 124.221,
    "risk_score": 3,
    "title": "GDELT Event: 111 in RP",
    "source_url": "https://mindanews.com/top-stories/2026/07/series-of-attacks-against-security-forces-not-meant-to-disrupt-pbbms-visit-says-military/",
    "tag": "neutral"
  },
  {
    "timestamp": "2026-07-21T00:00:00Z",
    "country": "RP",
    "lat": 7.22361,
    "lon": 124.246,
    "risk_score": 3,
    "title": "GDELT Event: 111 in RP",
    "source_url": "https://mindanews.com/top-stories/2026/07/series-of-attacks-against-security-forces-not-meant-to-disrupt-pbbms-visit-says-military/",
    "tag": "neutral"
  },
  {
    "timestamp": "2026-07-21T00:00:00Z",
    "country": "RP",
    "lat": 7.13333,
    "lon": 124.3,
    "risk_score": 3,
    "title": "GDELT Event: 111 in RP",
    "source_url": "https://mindanews.com/top-stories/2026/07/series-of-attacks-against-security-forces-not-meant-to-disrupt-pbbms-visit-says-military/",
    "tag": "neutral"
  },
  {
    "timestamp": "2026-07-21T00:00:00Z",
    "country": "RP",
    "lat": 7.13333,
    "lon": 124.3,
    "risk_score": 3,
    "title": "GDELT Event: 111 in RP",
    "source_url": "https://mindanews.com/top-stories/2026/07/series-of-attacks-against-security-forces-not-meant-to-disrupt-pbbms-visit-says-military/",
    "tag": "neutral"
  },
  {
    "timestamp": "2026-07-21T00:00:00Z",
    "country": "RP",
    "lat": 16.45,
    "lon": 120.55,
    "risk_score": 3,
    "title": "GDELT Event: 111 in RP",
    "source_url": "https://mindanews.com/top-stories/2026/07/series-of-attacks-against-security-forces-not-meant-to-disrupt-pbbms-visit-says-military/",
    "tag": "neutral"
  },
  {
    "timestamp": "2026-07-21T00:00:00Z",
    "country": "IN",
    "lat": 24.4833,
    "lon": 75.15,
    "risk_score": 5,
    "title": "GDELT Event: 173 in IN",
    "source_url": "https://www.freepressjournal.in/indore/cbn-busts-mp-drug-racket-seizes-1093-kg-poppy-husk",
    "tag": "neutral"
  },
  {
    "timestamp": "2026-07-21T00:00:00Z",
    "country": "KE",
    "lat": -1.28333,
    "lon": 36.8167,
    "risk_score": 4,
    "title": "GDELT Event: 037 in KE",
    "source_url": "https://capitalfm.africa/gachagua-dismisses-rutos-anti-goon-order-as-theatrics-claims-police-goon-alliance-is-fueling-violence/",
    "tag": "neutral"
  },
  {
    "timestamp": "2026-07-21T00:00:00Z",
    "country": "US",
    "lat": 32.7254,
    "lon": -97.3208,
    "risk_score": 2,
    "title": "GDELT Event: 036 in US",
    "source_url": "https://www.nbcdfw.com/news/national-international/amazon-prime-settlement-deadline-eligibility-file-claim/4052113/",
    "tag": "neutral"
  },
  {
    "timestamp": "2026-07-21T00:00:00Z",
    "country": "SA",
    "lat": 25.0,
    "lon": 45.0,
    "risk_score": 16,
    "title": "GDELT Event: 130 in SA",
    "source_url": "https://sputnikglobe.com/20260721/houthi-blockade-against-saudi-arabia-creates-geopolitical-economic-dilemma-for-pakistan-1124473618.html",
    "tag": "neutral"
  },
  {
    "timestamp": "2026-07-21T00:00:00Z",
    "country": "CH",
    "lat": 35.0,
    "lon": 105.0,
    "risk_score": 15,
    "title": "GDELT Event: 100 in CH",
    "source_url": "https://www.straitstimes.com/singapore/primary-school-pupils-learn-to-challenge-racial-stereotypes-during-racial-harmony-day-celebrations",
    "tag": "protest"
  },
  {
    "timestamp": "2026-07-21T00:00:00Z",
    "country": "RO",
    "lat": 44.4333,
    "lon": 26.1,
    "risk_score": 0,
    "title": "GDELT Event: 036 in RO",
    "source_url": "https://www.stiripesurse.ro/tiff-sibiu-marks-anniversary-with-six-romanian-film-premieres_3905393",
    "tag": "neutral"
  },
  {
    "timestamp": "2026-07-21T00:00:00Z",
    "country": "JA",
    "lat": 35.685,
    "lon": 139.751,
    "risk_score": 0,
    "title": "GDELT Event: 036 in JA",
    "source_url": "https://spacedaily.com/sd-japan-is-quietly-building-a-100-satellite-sovereign-eye-in-the-sky-and-the-sensor-that-makes-it-actually-useful-is-coming-from-a-finnish-startup-nobody-in-tokyo-had-heard-of-five-years-ago/",
    "tag": "neutral"
  },
  {
    "timestamp": "2026-07-21T00:00:00Z",
    "country": "JA",
    "lat": 35.685,
    "lon": 139.751,
    "risk_score": 0,
    "title": "GDELT Event: 036 in JA",
    "source_url": "https://spacedaily.com/sd-japan-is-quietly-building-a-100-satellite-sovereign-eye-in-the-sky-and-the-sensor-that-makes-it-actually-useful-is-coming-from-a-finnish-startup-nobody-in-tokyo-had-heard-of-five-years-ago/",
    "tag": "neutral"
  },
  {
    "timestamp": "2026-07-21T00:00:00Z",
    "country": "UK",
    "lat": 59.15,
    "lon": -2.61667,
    "risk_score": 6,
    "title": "GDELT Event: 042 in UK",
    "source_url": "https://www.dailyrecord.co.uk/news/politics/the-first-phone-call-between-37458752",
    "tag": "neutral"
  },
  {
    "timestamp": "2026-07-21T00:00:00Z",
    "country": "UK",
    "lat": 59.1,
    "lon": -6.16667,
    "risk_score": 6,
    "title": "GDELT Event: 043 in UK",
    "source_url": "https://geographical.co.uk/magazine-previews/out-now-august-2026s-geographical-magazine",
    "tag": "neutral"
  },
  {
    "timestamp": "2026-07-21T00:00:00Z",
    "country": "UK",
    "lat": 51.5,
    "lon": -0.116667,
    "risk_score": 2,
    "title": "GDELT Event: 057 in UK",
    "source_url": "https://www.timeout.com/london/news/london-museum-smithfield-food-and-drink-072126",
    "tag": "neutral"
  },
  {
    "timestamp": "2026-07-21T00:00:00Z",
    "country": "UK",
    "lat": 54.0,
    "lon": -4.0,
    "risk_score": 3,
    "title": "GDELT Event: 084 in UK",
    "source_url": "https://www.okotoksonline.com/articles/okotoks-rcmp-recover-stolen-bc-vehicle-seize-drugs-and-prohibited-weapon",
    "tag": "neutral"
  },
  {
    "timestamp": "2026-07-21T00:00:00Z",
    "country": "UK",
    "lat": 55.9333,
    "lon": -3.16667,
    "risk_score": 50,
    "title": "GDELT Event: 190 in UK",
    "source_url": "https://www.express.co.uk/news/uk/2231562/arthurs-seat-fire-update-edinburgh",
    "tag": "conflict"
  },
  {
    "timestamp": "2026-07-21T00:00:00Z",
    "country": "UK",
    "lat": 55.95,
    "lon": -3.2,
    "risk_score": 50,
    "title": "GDELT Event: 190 in UK",
    "source_url": "https://www.express.co.uk/news/uk/2231562/arthurs-seat-fire-update-edinburgh",
    "tag": "conflict"
  },
  {
    "timestamp": "2026-07-21T00:00:00Z",
    "country": "MX",
    "lat": 20.125,
    "lon": -87.45,
    "risk_score": 6,
    "title": "GDELT Event: 043 in MX",
    "source_url": "https://riviera-maya-news.com/sheinbaum-announces-tren-maya-freight-inauguration-in-early-2027-to-improve-peninsula-cargo-logistics/2026.html",
    "tag": "neutral"
  },
  {
    "timestamp": "2026-07-21T00:00:00Z",
    "country": "RP",
    "lat": 5.91333,
    "lon": 125.645,
    "risk_score": 6,
    "title": "GDELT Event: 043 in RP",
    "source_url": "https://mindanews.com/top-stories/2026/07/cabinet-secretaries-pledge-aid-visit-davao-occidental-town-hit-by-succession-of-natural-calamities/",
    "tag": "neutral"
  },
  {
    "timestamp": "2026-07-21T00:00:00Z",
    "country": "LI",
    "lat": 6.3125,
    "lon": -10.8167,
    "risk_score": 6,
    "title": "GDELT Event: 043 in LI",
    "source_url": "https://gnnliberia.com/national-archives-to-host-special-independence-day-exhibition-showcasing-liberias-historic-documents-and-artifacts/",
    "tag": "neutral"
  },
  {
    "timestamp": "2026-07-21T00:00:00Z",
    "country": "NI",
    "lat": 12.9894,
    "lon": 7.60063,
    "risk_score": 3,
    "title": "GDELT Event: 084 in NI",
    "source_url": "https://www.channelstv.com/2026/07/21/troops-rescue-kidnap-victims-arrest-suspected-terrorist-logistics-suppliers/",
    "tag": "neutral"
  },
  {
    "timestamp": "2026-07-21T00:00:00Z",
    "country": "NI",
    "lat": 11.5,
    "lon": 4.0,
    "risk_score": 3,
    "title": "GDELT Event: 084 in NI",
    "source_url": "https://www.channelstv.com/2026/07/21/troops-rescue-kidnap-victims-arrest-suspected-terrorist-logistics-suppliers/",
    "tag": "neutral"
  },
  {
    "timestamp": "2026-07-21T00:00:00Z",
    "country": "CA",
    "lat": 43.6667,
    "lon": -79.4167,
    "risk_score": 3,
    "title": "GDELT Event: 173 in CA",
    "source_url": "https://www.durhamregion.com/news/crime/suspect-linked-to-fatal-pickering-casino-shooting-arrested/article_e1764625-fe16-54f6-b1ff-70e6359d9b81.html",
    "tag": "neutral"
  },
  {
    "timestamp": "2026-07-21T00:00:00Z",
    "country": "IN",
    "lat": 20.5,
    "lon": 84.4167,
    "risk_score": 1,
    "title": "GDELT Event: 020 in IN",
    "source_url": "https://www.orissapost.com/shift-sonam-wangchuk-to-medanta-delhi-hc/",
    "tag": "neutral"
  },
  {
    "timestamp": "2026-07-21T00:00:00Z",
    "country": "IN",
    "lat": 20.5,
    "lon": 84.4167,
    "risk_score": 1,
    "title": "GDELT Event: 025 in IN",
    "source_url": "https://www.orissapost.com/shift-sonam-wangchuk-to-medanta-delhi-hc/",
    "tag": "neutral"
  },
  {
    "timestamp": "2026-07-21T00:00:00Z",
    "country": "IN",
    "lat": 18.5333,
    "lon": 73.8667,
    "risk_score": 9,
    "title": "GDELT Event: 042 in IN",
    "source_url": "https://www.freepressjournal.in/mumbai/palghar-tragedy-30-year-old-man-dies-after-roofs-iron-angle-collapses-and-impales-his-neck-in-vasai",
    "tag": "neutral"
  },
  {
    "timestamp": "2026-07-21T00:00:00Z",
    "country": "IN",
    "lat": 19.35,
    "lon": 72.8,
    "risk_score": 9,
    "title": "GDELT Event: 042 in IN",
    "source_url": "https://www.freepressjournal.in/mumbai/palghar-tragedy-30-year-old-man-dies-after-roofs-iron-angle-collapses-and-impales-his-neck-in-vasai",
    "tag": "neutral"
  },
  {
    "timestamp": "2026-07-21T00:00:00Z",
    "country": "IN",
    "lat": 19.35,
    "lon": 72.8,
    "risk_score": 9,
    "title": "GDELT Event: 042 in IN",
    "source_url": "https://www.freepressjournal.in/mumbai/palghar-tragedy-30-year-old-man-dies-after-roofs-iron-angle-collapses-and-impales-his-neck-in-vasai",
    "tag": "neutral"
  },
  {
    "timestamp": "2026-07-21T00:00:00Z",
    "country": "US",
    "lat": 39.4668,
    "lon": -77.3997,
    "risk_score": 7,
    "title": "GDELT Event: 042 in US",
    "source_url": "https://www.wpbf.com/article/kaylee-hottle-maryland-car-crash-dead-18/73209929",
    "tag": "neutral"
  },
  {
    "timestamp": "2026-07-21T00:00:00Z",
    "country": "IN",
    "lat": 20.5,
    "lon": 84.4167,
    "risk_score": 1,
    "title": "GDELT Event: 090 in IN",
    "source_url": "https://www.orissapost.com/shift-sonam-wangchuk-to-medanta-delhi-hc/",
    "tag": "neutral"
  },
  {
    "timestamp": "2026-07-21T00:00:00Z",
    "country": "US",
    "lat": 39.828175,
    "lon": -98.5795,
    "risk_score": 51,
    "title": "GDELT Event: 190 in US",
    "source_url": "https://comicbook.com/comics/list/these-5-marvel-masterminds-have-a-plan-for-everything-two-are-about-to-be-huge-in-the-mcu/",
    "tag": "conflict"
  },
  {
    "timestamp": "2026-07-21T00:00:00Z",
    "country": "BC",
    "lat": -22.0,
    "lon": 24.0,
    "risk_score": 13,
    "title": "GDELT Event: 130 in BC",
    "source_url": "https://www.sundaystandard.info/poverty-inequality-driving-botswanas-economic-decline-world-bank/",
    "tag": "neutral"
  },
  {
    "timestamp": "2026-07-21T00:00:00Z",
    "country": "IR",
    "lat": 25.7893,
    "lon": 61.1025,
    "risk_score": 2,
    "title": "GDELT Event: 051 in IR",
    "source_url": "https://theintercept.com/2026/07/20/hegseth-civilian-harm-deaths-war/",
    "tag": "neutral"
  },
  {
    "timestamp": "2026-07-21T00:00:00Z",
    "country": "UK",
    "lat": 51.5,
    "lon": -0.116667,
    "risk_score": 6,
    "title": "GDELT Event: 042 in UK",
    "source_url": "https://www.howtogeek.com/tom-hiddleston-pompeii-out-of-time-documentary-interview/",
    "tag": "neutral"
  },
  {
    "timestamp": "2026-07-21T00:00:00Z",
    "country": "FR",
    "lat": 48.8667,
    "lon": 2.33333,
    "risk_score": 8,
    "title": "GDELT Event: 043 in FR",
    "source_url": "https://www.stylemepretty.com/2026/07/21/paris-romance-met-hudson-valley-charm-at-blue-hill-at-stone-barns/",
    "tag": "neutral"
  },
  {
    "timestamp": "2026-07-21T00:00:00Z",
    "country": "US",
    "lat": 42.7475,
    "lon": -107.209,
    "risk_score": 8,
    "title": "GDELT Event: 043 in US",
    "source_url": "https://fox56.com/news/local/street-art-society-of-nepa-launches-2026-mural-tour-with-30-murals-across-the-valley",
    "tag": "neutral"
  },
  {
    "timestamp": "2026-07-21T00:00:00Z",
    "country": "US",
    "lat": 36.17,
    "lon": -119.746,
    "risk_score": 5,
    "title": "GDELT Event: 042 in US",
    "source_url": "https://t-ono.net/concerts/nemophila-at-the-glass-house-7/14/26-concert-report.html",
    "tag": "neutral"
  },
  {
    "timestamp": "2026-07-21T00:00:00Z",
    "country": "KE",
    "lat": -1.28333,
    "lon": 36.8167,
    "risk_score": 2,
    "title": "GDELT Event: 023 in KE",
    "source_url": "https://www.standardmedia.co.ke/national/article/2001553411/kindiki-calls-for-legal-safeguards-to-protect-kenyas-long-term-development-vision",
    "tag": "neutral"
  },
  {
    "timestamp": "2026-07-21T00:00:00Z",
    "country": "KE",
    "lat": -1.28333,
    "lon": 36.8167,
    "risk_score": 4,
    "title": "GDELT Event: 037 in KE",
    "source_url": "https://capitalfm.africa/ruto-says-kenya-has-reached-consensus-against-goonism-orders-security-agencies-to-crack-down-on-criminality/",
    "tag": "neutral"
  },
  {
    "timestamp": "2026-07-21T00:00:00Z",
    "country": "KE",
    "lat": -0.767317,
    "lon": 36.3597,
    "risk_score": 6,
    "title": "GDELT Event: 043 in KE",
    "source_url": "https://geographical.co.uk/magazine-previews/out-now-august-2026s-geographical-magazine",
    "tag": "neutral"
  },
  {
    "timestamp": "2026-07-21T00:00:00Z",
    "country": "FR",
    "lat": 48.821,
    "lon": 2.27718,
    "risk_score": 6,
    "title": "GDELT Event: 040 in FR",
    "source_url": "https://www.manilatimes.net/2026/07/22/tmt-newswire/globenewswire/sodexo-interim-report-on-liquidity-contract-as-at-june-30-2026/2388756",
    "tag": "neutral"
  },
  {
    "timestamp": "2026-07-21T00:00:00Z",
    "country": "US",
    "lat": 40.3363,
    "lon": -89.0022,
    "risk_score": 8,
    "title": "GDELT Event: 043 in US",
    "source_url": "https://www.goshennews.com/news/national_news/illinois-extreme-weather-heat/image_3824f700-8314-551d-a737-f09fe8cd5171.html",
    "tag": "neutral"
  },
  {
    "timestamp": "2026-07-21T00:00:00Z",
    "country": "US",
    "lat": 46.9048,
    "lon": -110.326,
    "risk_score": 1,
    "title": "GDELT Event: 080 in US",
    "source_url": "https://www.news24.com/southafrica/news/former-prasa-board-members-accused-of-corruption-challenge-law-on-suing-judges-20260721-0979",
    "tag": "neutral"
  },
  {
    "timestamp": "2026-07-21T00:00:00Z",
    "country": "UK",
    "lat": 51.5,
    "lon": -0.116667,
    "risk_score": 1,
    "title": "GDELT Event: 017 in UK",
    "source_url": "https://www.aol.co.uk/articles/sky-news-sexism-storm-cathy-160900000.html",
    "tag": "neutral"
  },
  {
    "timestamp": "2026-07-21T00:00:00Z",
    "country": "US",
    "lat": 43.0389,
    "lon": -87.9065,
    "risk_score": 6,
    "title": "GDELT Event: 043 in US",
    "source_url": "https://www.prnewswire.com:443/news-releases/milwaukee-air--water-show-to-host-exclusive-media-day-and-pre-show-press-conference-ahead-of-july-25--26-event-302826876.html",
    "tag": "neutral"
  },
  {
    "timestamp": "2026-07-21T00:00:00Z",
    "country": "MX",
    "lat": 20.8667,
    "lon": -88.6333,
    "risk_score": 6,
    "title": "GDELT Event: 043 in MX",
    "source_url": "https://riviera-maya-news.com/sheinbaum-announces-tren-maya-freight-inauguration-in-early-2027-to-improve-peninsula-cargo-logistics/2026.html",
    "tag": "neutral"
  },
  {
    "timestamp": "2026-07-21T00:00:00Z",
    "country": "MX",
    "lat": 18.5,
    "lon": -88.3,
    "risk_score": 6,
    "title": "GDELT Event: 043 in MX",
    "source_url": "https://riviera-maya-news.com/sheinbaum-announces-tren-maya-freight-inauguration-in-early-2027-to-improve-peninsula-cargo-logistics/2026.html",
    "tag": "neutral"
  },
  {
    "timestamp": "2026-07-21T00:00:00Z",
    "country": "MX",
    "lat": 20.8667,
    "lon": -88.6333,
    "risk_score": 6,
    "title": "GDELT Event: 043 in MX",
    "source_url": "https://riviera-maya-news.com/sheinbaum-announces-tren-maya-freight-inauguration-in-early-2027-to-improve-peninsula-cargo-logistics/2026.html",
    "tag": "neutral"
  },
  {
    "timestamp": "2026-07-21T00:00:00Z",
    "country": "MX",
    "lat": 20.85,
    "lon": -86.8667,
    "risk_score": 6,
    "title": "GDELT Event: 043 in MX",
    "source_url": "https://riviera-maya-news.com/sheinbaum-announces-tren-maya-freight-inauguration-in-early-2027-to-improve-peninsula-cargo-logistics/2026.html",
    "tag": "neutral"
  },
  {
    "timestamp": "2026-07-21T00:00:00Z",
    "country": "UK",
    "lat": 51.5,
    "lon": -0.116667,
    "risk_score": 6,
    "title": "GDELT Event: 046 in UK",
    "source_url": "https://www.pcmag.com/news/how-to-watch-samsung-galaxy-unpacked-2026-what-we-expect",
    "tag": "neutral"
  },
  {
    "timestamp": "2026-07-21T00:00:00Z",
    "country": "HK",
    "lat": 22.25,
    "lon": 114.166667,
    "risk_score": 8,
    "title": "GDELT Event: 042 in HK",
    "source_url": "https://variety.com/2026/shopping/news/d23-fan-event-disney-store-shop-1236817191/",
    "tag": "neutral"
  },
  {
    "timestamp": "2026-07-21T00:00:00Z",
    "country": "UK",
    "lat": 54.0,
    "lon": -4.0,
    "risk_score": 8,
    "title": "GDELT Event: 042 in UK",
    "source_url": "https://variety.com/2026/shopping/news/d23-fan-event-disney-store-shop-1236817191/",
    "tag": "neutral"
  },
  {
    "timestamp": "2026-07-21T00:00:00Z",
    "country": "US",
    "lat": 32.7153,
    "lon": -117.157,
    "risk_score": 6,
    "title": "GDELT Event: 043 in US",
    "source_url": "https://comicbook.com/movies/news/avengers-endgame-and-infinity-war-dominate-the-streaming-charts-as-the-road-to-doomsday-kicks-off/",
    "tag": "neutral"
  },
  {
    "timestamp": "2026-07-21T00:00:00Z",
    "country": "US",
    "lat": 29.9546,
    "lon": -90.0751,
    "risk_score": 8,
    "title": "GDELT Event: 043 in US",
    "source_url": "https://www.wsfa.com/2026/07/21/rundown-art-town/",
    "tag": "neutral"
  },
  {
    "timestamp": "2026-07-21T00:00:00Z",
    "country": "SL",
    "lat": 8.5,
    "lon": -11.5,
    "risk_score": 3,
    "title": "GDELT Event: 084 in SL",
    "source_url": "https://www.africanews.com/2026/07/21/ecowas-urges-guinea-bissaus-military-leaders-to-release-jailed-opposition-figures/",
    "tag": "neutral"
  },
  {
    "timestamp": "2026-07-21T00:00:00Z",
    "country": "PE",
    "lat": -12.05,
    "lon": -77.05,
    "risk_score": 1,
    "title": "GDELT Event: 010 in PE",
    "source_url": "https://www.tickerreport.com/banking-finance/13510572/cementos-pacasmayo-s-a-a-q2-earnings-call-highlights.html",
    "tag": "neutral"
  },
  {
    "timestamp": "2026-07-21T00:00:00Z",
    "country": "US",
    "lat": 38.8951,
    "lon": -77.0364,
    "risk_score": 1,
    "title": "GDELT Event: 036 in US",
    "source_url": "https://www.straitstimes.com/asia/marco-rubio-to-meet-chinese-fm-wang-yi-on-asean-sidelines-says-us-state-dept",
    "tag": "neutral"
  },
  {
    "timestamp": "2026-07-21T00:00:00Z",
    "country": "RP",
    "lat": 7.07306,
    "lon": 125.613,
    "risk_score": 6,
    "title": "GDELT Event: 043 in RP",
    "source_url": "https://mindanews.com/top-stories/2026/07/cabinet-secretaries-pledge-aid-visit-davao-occidental-town-hit-by-succession-of-natural-calamities/",
    "tag": "neutral"
  },
  {
    "timestamp": "2026-07-21T00:00:00Z",
    "country": "YM",
    "lat": 15.3547,
    "lon": 44.2067,
    "risk_score": 14,
    "title": "GDELT Event: 130 in YM",
    "source_url": "https://www.aol.co.uk/articles/donald-trump-sends-chilling-warning-160100000.html",
    "tag": "neutral"
  },
  {
    "timestamp": "2026-07-21T00:00:00Z",
    "country": "IR",
    "lat": 32.0,
    "lon": 53.0,
    "risk_score": 14,
    "title": "GDELT Event: 130 in IR",
    "source_url": "https://www.express.co.uk/news/world/2231556/donald-trump-warning-houthis-red-sea",
    "tag": "neutral"
  },
  {
    "timestamp": "2026-07-21T00:00:00Z",
    "country": "SY",
    "lat": 35.0,
    "lon": 38.0,
    "risk_score": 0,
    "title": "GDELT Event: 036 in SY",
    "source_url": "https://english.aawsat.com/arab-world/5298593-un-says-secretary-general-guterres-will-visit-syria-later-week",
    "tag": "neutral"
  },
  {
    "timestamp": "2026-07-21T00:00:00Z",
    "country": "US",
    "lat": 39.9443,
    "lon": -74.0729,
    "risk_score": 2,
    "title": "GDELT Event: 020 in US",
    "source_url": "https://nj1015.com/best-nj-pizza-town/",
    "tag": "neutral"
  },
  {
    "timestamp": "2026-07-21T00:00:00Z",
    "country": "US",
    "lat": 39.162,
    "lon": -84.4569,
    "risk_score": 0,
    "title": "GDELT Event: 036 in US",
    "source_url": "https://www.wcpo.com/news/local-news/a-real-game-changer-construction-begins-on-540m-convention-headquarters-hotel",
    "tag": "neutral"
  },
  {
    "timestamp": "2026-07-21T00:00:00Z",
    "country": "US",
    "lat": 38.8668,
    "lon": -77.0997,
    "risk_score": 3,
    "title": "GDELT Event: 036 in US",
    "source_url": "https://www.arlnow.com/2026/07/21/candidates-for-arlington-treasurer-can-file-for-democratic-endorsement-on-friday/",
    "tag": "neutral"
  },
  {
    "timestamp": "2026-07-21T00:00:00Z",
    "country": "US",
    "lat": 33.1434,
    "lon": -117.166,
    "risk_score": 1,
    "title": "GDELT Event: 036 in US",
    "source_url": "https://cal.streetsblog.org/2026/07/20/sb-79-deconstructed-san-marcos",
    "tag": "neutral"
  },
  {
    "timestamp": "2026-07-21T00:00:00Z",
    "country": "US",
    "lat": 36.0668,
    "lon": -79.7998,
    "risk_score": 5,
    "title": "GDELT Event: 040 in US",
    "source_url": "https://www.wxii12.com/article/guilford-co-elections-board-to-decide-early-voting-sites-for-november-election-amid-calls-for-inclusion-of-university-sites/73201744",
    "tag": "neutral"
  },
  {
    "timestamp": "2026-07-21T00:00:00Z",
    "country": "US",
    "lat": 44.4344,
    "lon": -74.2569,
    "risk_score": 7,
    "title": "GDELT Event: 040 in US",
    "source_url": "https://gizmodo.com/other-mommy-trailer-jessica-chastain-2000788493",
    "tag": "neutral"
  },
  {
    "timestamp": "2026-07-21T00:00:00Z",
    "country": "US",
    "lat": 33.1434,
    "lon": -117.166,
    "risk_score": 6,
    "title": "GDELT Event: 042 in US",
    "source_url": "https://cal.streetsblog.org/2026/07/20/sb-79-deconstructed-san-marcos",
    "tag": "neutral"
  },
  {
    "timestamp": "2026-07-21T00:00:00Z",
    "country": "US",
    "lat": 33.0668,
    "lon": -83.1499,
    "risk_score": 6,
    "title": "GDELT Event: 042 in US",
    "source_url": "https://unionrecorder.com/2026/07/21/death-under-investigation-as-presumed-drowning/",
    "tag": "neutral"
  },
  {
    "timestamp": "2026-07-21T00:00:00Z",
    "country": "US",
    "lat": 32.9866,
    "lon": -83.6487,
    "risk_score": 6,
    "title": "GDELT Event: 042 in US",
    "source_url": "https://unionrecorder.com/2026/07/21/death-under-investigation-as-presumed-drowning/",
    "tag": "neutral"
  },
  {
    "timestamp": "2026-07-21T00:00:00Z",
    "country": "US",
    "lat": 41.0586,
    "lon": -94.3614,
    "risk_score": 5,
    "title": "GDELT Event: 042 in US",
    "source_url": "https://www.crestonnews.com:443/article/784,helping-others-the-heart-of-trone-garriott-s-message",
    "tag": "neutral"
  },
  {
    "timestamp": "2026-07-21T00:00:00Z",
    "country": "US",
    "lat": 41.0333,
    "lon": -94.2508,
    "risk_score": 5,
    "title": "GDELT Event: 042 in US",
    "source_url": "https://www.crestonnews.com:443/article/784,helping-others-the-heart-of-trone-garriott-s-message",
    "tag": "neutral"
  },
  {
    "timestamp": "2026-07-21T00:00:00Z",
    "country": "US",
    "lat": 41.0586,
    "lon": -94.3614,
    "risk_score": 5,
    "title": "GDELT Event: 042 in US",
    "source_url": "https://www.crestonnews.com:443/article/784,helping-others-the-heart-of-trone-garriott-s-message",
    "tag": "neutral"
  },
  {
    "timestamp": "2026-07-21T00:00:00Z",
    "country": "US",
    "lat": 41.0333,
    "lon": -94.2508,
    "risk_score": 5,
    "title": "GDELT Event: 042 in US",
    "source_url": "https://www.crestonnews.com:443/article/784,helping-others-the-heart-of-trone-garriott-s-message",
    "tag": "neutral"
  },
  {
    "timestamp": "2026-07-21T00:00:00Z",
    "country": "US",
    "lat": 33.6479,
    "lon": -96.5958,
    "risk_score": 8,
    "title": "GDELT Event: 043 in US",
    "source_url": "https://www.cachevalleydaily.com/obituaries/evelyn-hargrove-falk/article_cf572659-c00c-41c1-a9d3-d1c3d6a5f480.html",
    "tag": "neutral"
  },
  {
    "timestamp": "2026-07-21T00:00:00Z",
    "country": "US",
    "lat": 31.106,
    "lon": -97.6475,
    "risk_score": 8,
    "title": "GDELT Event: 043 in US",
    "source_url": "https://www.cachevalleydaily.com/obituaries/evelyn-hargrove-falk/article_cf572659-c00c-41c1-a9d3-d1c3d6a5f480.html",
    "tag": "neutral"
  },
  {
    "timestamp": "2026-07-21T00:00:00Z",
    "country": "US",
    "lat": 42.7475,
    "lon": -107.209,
    "risk_score": 8,
    "title": "GDELT Event: 043 in US",
    "source_url": "https://fox56.com/news/local/street-art-society-of-nepa-launches-2026-mural-tour-with-30-murals-across-the-valley",
    "tag": "neutral"
  },
  {
    "timestamp": "2026-07-21T00:00:00Z",
    "country": "US",
    "lat": 36.4001,
    "lon": -79.7831,
    "risk_score": 6,
    "title": "GDELT Event: 046 in US",
    "source_url": "https://wbt.com/1647989/rockingham-co-asks-top-nc-court-to-spike-casino-related-rezoning-suit/",
    "tag": "neutral"
  },
  {
    "timestamp": "2026-07-21T00:00:00Z",
    "country": "US",
    "lat": 35.2271,
    "lon": -80.8431,
    "risk_score": 6,
    "title": "GDELT Event: 046 in US",
    "source_url": "https://wbt.com/1647989/rockingham-co-asks-top-nc-court-to-spike-casino-related-rezoning-suit/",
    "tag": "neutral"
  },
  {
    "timestamp": "2026-07-21T00:00:00Z",
    "country": "US",
    "lat": 21.1098,
    "lon": -157.531,
    "risk_score": 0,
    "title": "GDELT Event: 061 in US",
    "source_url": "https://www.theatlantic.com/ideas/2026/07/jones-act-domestic-commerce/688003/",
    "tag": "neutral"
  },
  {
    "timestamp": "2026-07-21T00:00:00Z",
    "country": "US",
    "lat": 30.4091,
    "lon": -89.0436,
    "risk_score": 5,
    "title": "GDELT Event: 112 in US",
    "source_url": "https://www.wlox.com/2026/07/21/woman-charged-after-shooting-gulfport-apartment-complex-police-say/",
    "tag": "neutral"
  },
  {
    "timestamp": "2026-07-21T00:00:00Z",
    "country": "US",
    "lat": 41.731,
    "lon": -111.84,
    "risk_score": 3,
    "title": "GDELT Event: 173 in US",
    "source_url": "https://www.cachevalleydaily.com/obituaries/evelyn-hargrove-falk/article_cf572659-c00c-41c1-a9d3-d1c3d6a5f480.html",
    "tag": "neutral"
  },
  {
    "timestamp": "2026-07-21T00:00:00Z",
    "country": "US",
    "lat": 33.8191,
    "lon": -80.9066,
    "risk_score": 52,
    "title": "GDELT Event: 190 in US",
    "source_url": "https://www.scetv.org/stories/2026/yorktown-part-two-september-28-october-19-1781-and-then-there-were-thirteen-1976-etv",
    "tag": "conflict"
  },
  {
    "timestamp": "2026-07-21T00:00:00Z",
    "country": "US",
    "lat": 42.0046,
    "lon": -93.214,
    "risk_score": 5,
    "title": "GDELT Event: 042 in US",
    "source_url": "https://www.crestonnews.com:443/article/784,helping-others-the-heart-of-trone-garriott-s-message",
    "tag": "neutral"
  },
  {
    "timestamp": "2026-07-21T00:00:00Z",
    "country": "AF",
    "lat": 33.0,
    "lon": 66.0,
    "risk_score": 47,
    "title": "GDELT Event: 186 in AF",
    "source_url": "https://www.israelnationalnews.com/news/430529",
    "tag": "conflict"
  },
  {
    "timestamp": "2026-07-21T00:00:00Z",
    "country": "AF",
    "lat": 33.0,
    "lon": 66.0,
    "risk_score": 47,
    "title": "GDELT Event: 186 in AF",
    "source_url": "https://www.israelnationalnews.com/news/430529",
    "tag": "conflict"
  },
  {
    "timestamp": "2026-07-21T00:00:00Z",
    "country": "AF",
    "lat": 33.0,
    "lon": 66.0,
    "risk_score": 47,
    "title": "GDELT Event: 186 in AF",
    "source_url": "https://www.israelnationalnews.com/news/430529",
    "tag": "conflict"
  },
  {
    "timestamp": "2026-07-21T00:00:00Z",
    "country": "US",
    "lat": 42.1497,
    "lon": -74.9384,
    "risk_score": 2,
    "title": "GDELT Event: 010 in US",
    "source_url": "https://www.shootonline.com/article/director-india-harris-signs-with-stink-for-u-k-and-u-s-representation/",
    "tag": "neutral"
  },
  {
    "timestamp": "2026-07-21T00:00:00Z",
    "country": "SF",
    "lat": -26.8159,
    "lon": 27.8297,
    "risk_score": 5,
    "title": "GDELT Event: 043 in SF",
    "source_url": "https://theconversation.com/a-sharp-fall-in-gas-supplies-in-2028-threatens-south-africas-economy-how-to-manage-the-fallout-286861",
    "tag": "neutral"
  },
  {
    "timestamp": "2026-07-21T00:00:00Z",
    "country": "SF",
    "lat": -30.0,
    "lon": 26.0,
    "risk_score": 2,
    "title": "GDELT Event: 071 in SF",
    "source_url": "https://www.opportunitiesforafricans.com/canon-collins-rmtf-scholarships-2027/",
    "tag": "neutral"
  },
  {
    "timestamp": "2026-07-21T00:00:00Z",
    "country": "SF",
    "lat": -26.8159,
    "lon": 27.8297,
    "risk_score": 5,
    "title": "GDELT Event: 043 in SF",
    "source_url": "https://theconversation.com/a-sharp-fall-in-gas-supplies-in-2028-threatens-south-africas-economy-how-to-manage-the-fallout-286861",
    "tag": "neutral"
  },
  {
    "timestamp": "2026-07-21T00:00:00Z",
    "country": "SF",
    "lat": -30.0,
    "lon": 26.0,
    "risk_score": 2,
    "title": "GDELT Event: 026 in SF",
    "source_url": "https://www.opportunitiesforafricans.com/canon-collins-rmtf-scholarships-2027/",
    "tag": "neutral"
  },
  {
    "timestamp": "2026-07-21T00:00:00Z",
    "country": "SF",
    "lat": -26.2,
    "lon": 28.0833,
    "risk_score": 1,
    "title": "GDELT Event: 080 in SF",
    "source_url": "https://www.news24.com/southafrica/news/former-prasa-board-members-accused-of-corruption-challenge-law-on-suing-judges-20260721-0979",
    "tag": "neutral"
  },
  {
    "timestamp": "2026-07-21T00:00:00Z",
    "country": "US",
    "lat": 46.9048,
    "lon": -110.326,
    "risk_score": 1,
    "title": "GDELT Event: 120 in US",
    "source_url": "https://www.news24.com/southafrica/news/former-prasa-board-members-accused-of-corruption-challenge-law-on-suing-judges-20260721-0979",
    "tag": "neutral"
  },
  {
    "timestamp": "2026-07-21T00:00:00Z",
    "country": "PU",
    "lat": 11.85,
    "lon": -15.5833,
    "risk_score": 3,
    "title": "GDELT Event: 025 in PU",
    "source_url": "https://www.africanews.com/2026/07/21/ecowas-urges-guinea-bissaus-military-leaders-to-release-jailed-opposition-figures/",
    "tag": "neutral"
  },
  {
    "timestamp": "2026-07-21T00:00:00Z",
    "country": "PU",
    "lat": 11.85,
    "lon": -15.5833,
    "risk_score": 3,
    "title": "GDELT Event: 025 in PU",
    "source_url": "https://www.africanews.com/2026/07/21/ecowas-urges-guinea-bissaus-military-leaders-to-release-jailed-opposition-figures/",
    "tag": "neutral"
  },
  {
    "timestamp": "2026-07-21T00:00:00Z",
    "country": "GV",
    "lat": 11.0,
    "lon": -10.0,
    "risk_score": 3,
    "title": "GDELT Event: 025 in GV",
    "source_url": "https://www.africanews.com/2026/07/21/ecowas-urges-guinea-bissaus-military-leaders-to-release-jailed-opposition-figures/",
    "tag": "neutral"
  },
  {
    "timestamp": "2026-07-21T00:00:00Z",
    "country": "PU",
    "lat": 11.85,
    "lon": -15.5833,
    "risk_score": 3,
    "title": "GDELT Event: 025 in PU",
    "source_url": "https://www.africanews.com/2026/07/21/ecowas-urges-guinea-bissaus-military-leaders-to-release-jailed-opposition-figures/",
    "tag": "neutral"
  },
  {
    "timestamp": "2026-07-21T00:00:00Z",
    "country": "PU",
    "lat": 11.85,
    "lon": -15.5833,
    "risk_score": 3,
    "title": "GDELT Event: 084 in PU",
    "source_url": "https://www.africanews.com/2026/07/21/ecowas-urges-guinea-bissaus-military-leaders-to-release-jailed-opposition-figures/",
    "tag": "neutral"
  },
  {
    "timestamp": "2026-07-21T00:00:00Z",
    "country": "SF",
    "lat": -31.2895,
    "lon": 29.4551,
    "risk_score": 0,
    "title": "GDELT Event: 061 in SF",
    "source_url": "https://theconversation.com/a-sharp-fall-in-gas-supplies-in-2028-threatens-south-africas-economy-how-to-manage-the-fallout-286861",
    "tag": "neutral"
  },
  {
    "timestamp": "2026-07-21T00:00:00Z",
    "country": "RP",
    "lat": 16.45,
    "lon": 120.55,
    "risk_score": 0,
    "title": "GDELT Event: 035 in RP",
    "source_url": "https://www.philstar.com/business/2026/07/22/2543688/pca-seeks-regulatory-powers-copra-prices",
    "tag": "neutral"
  },
  {
    "timestamp": "2026-07-21T00:00:00Z",
    "country": "RP",
    "lat": 16.45,
    "lon": 120.55,
    "risk_score": 0,
    "title": "GDELT Event: 035 in RP",
    "source_url": "https://www.philstar.com/business/2026/07/22/2543688/pca-seeks-regulatory-powers-copra-prices",
    "tag": "neutral"
  },
  {
    "timestamp": "2026-07-21T00:00:00Z",
    "country": "AS",
    "lat": -31.9333,
    "lon": 115.833,
    "risk_score": 50,
    "title": "GDELT Event: 190 in AS",
    "source_url": "https://www.f4wonline.com/news/john-cenas-instructions-to-aj-styles-in-crown-jewel-match-to-avoid-using-wwe-hall-of-famers-move/",
    "tag": "conflict"
  },
  {
    "timestamp": "2026-07-21T00:00:00Z",
    "country": "AS",
    "lat": -25.0,
    "lon": 135.0,
    "risk_score": 2,
    "title": "GDELT Event: 030 in AS",
    "source_url": "http://www.bignewsnetwork.com/news/279201566/1st-ld-writethru-chinese-fm-calls-for-joint-efforts-with-australia-to-sustain-improving-ties",
    "tag": "neutral"
  },
  {
    "timestamp": "2026-07-21T00:00:00Z",
    "country": "CH",
    "lat": 35.0,
    "lon": 105.0,
    "risk_score": 2,
    "title": "GDELT Event: 030 in CH",
    "source_url": "http://www.bignewsnetwork.com/news/279201566/1st-ld-writethru-chinese-fm-calls-for-joint-efforts-with-australia-to-sustain-improving-ties",
    "tag": "neutral"
  },
  {
    "timestamp": "2026-07-21T00:00:00Z",
    "country": "CH",
    "lat": 35.0,
    "lon": 105.0,
    "risk_score": 2,
    "title": "GDELT Event: 036 in CH",
    "source_url": "http://www.bignewsnetwork.com/news/279201566/1st-ld-writethru-chinese-fm-calls-for-joint-efforts-with-australia-to-sustain-improving-ties",
    "tag": "neutral"
  },
  {
    "timestamp": "2026-07-21T00:00:00Z",
    "country": "AS",
    "lat": -25.0,
    "lon": 135.0,
    "risk_score": 2,
    "title": "GDELT Event: 110 in AS",
    "source_url": "http://www.bignewsnetwork.com/news/279201566/1st-ld-writethru-chinese-fm-calls-for-joint-efforts-with-australia-to-sustain-improving-ties",
    "tag": "neutral"
  },
  {
    "timestamp": "2026-07-21T00:00:00Z",
    "country": "BE",
    "lat": 50.833333,
    "lon": 4.0,
    "risk_score": 3,
    "title": "GDELT Event: 051 in BE",
    "source_url": "https://www.esmmagazine.com/ingredients/acomo-acquires-cublend-to-accelerate-growth-in-food-solutions-segment-317038",
    "tag": "neutral"
  },
  {
    "timestamp": "2026-07-21T00:00:00Z",
    "country": "GH",
    "lat": 6.91428,
    "lon": 0.536667,
    "risk_score": 6,
    "title": "GDELT Event: 042 in GH",
    "source_url": "https://thebftonline.com/article/myla-homes-introduces-the-chestnut-to-advance-property-investments-with-boutique-living-privacy-and-security-for-strong-returns",
    "tag": "neutral"
  },
  {
    "timestamp": "2026-07-21T00:00:00Z",
    "country": "GH",
    "lat": 6.91428,
    "lon": 0.536667,
    "risk_score": 6,
    "title": "GDELT Event: 042 in GH",
    "source_url": "https://thebftonline.com/article/lemfi-and-bvnk-partner-to-rebuild-the-rails-of-the-diaspora-economy-with-stablecoin-settlement",
    "tag": "neutral"
  },
  {
    "timestamp": "2026-07-21T00:00:00Z",
    "country": "GH",
    "lat": 6.91428,
    "lon": 0.536667,
    "risk_score": 6,
    "title": "GDELT Event: 042 in GH",
    "source_url": "https://thebftonline.com/article/myla-homes-introduces-the-chestnut-to-advance-property-investments-with-boutique-living-privacy-and-security-for-strong-returns",
    "tag": "neutral"
  },
  {
    "timestamp": "2026-07-21T00:00:00Z",
    "country": "GH",
    "lat": 6.69194,
    "lon": -1.40506,
    "risk_score": 6,
    "title": "GDELT Event: 042 in GH",
    "source_url": "https://thebftonline.com/article/lemfi-and-bvnk-partner-to-rebuild-the-rails-of-the-diaspora-economy-with-stablecoin-settlement",
    "tag": "neutral"
  },
  {
    "timestamp": "2026-07-21T00:00:00Z",
    "country": "GH",
    "lat": 6.69194,
    "lon": -1.40506,
    "risk_score": 6,
    "title": "GDELT Event: 042 in GH",
    "source_url": "https://thebftonline.com/article/lemfi-and-bvnk-partner-to-rebuild-the-rails-of-the-diaspora-economy-with-stablecoin-settlement",
    "tag": "neutral"
  },
  {
    "timestamp": "2026-07-21T00:00:00Z",
    "country": "BR",
    "lat": -14.7667,
    "lon": -57.4333,
    "risk_score": 1,
    "title": "GDELT Event: 057 in BR",
    "source_url": "https://www.dailystar.co.uk/news/world-news/baby-starts-moving-body-bag-37460009",
    "tag": "neutral"
  },
  {
    "timestamp": "2026-07-21T00:00:00Z",
    "country": "BR",
    "lat": -14.7667,
    "lon": -57.4333,
    "risk_score": 0,
    "title": "GDELT Event: 010 in BR",
    "source_url": "https://www.mirror.co.uk/news/world-news/we-were-told-baby-boy-37460096",
    "tag": "neutral"
  },
  {
    "timestamp": "2026-07-21T00:00:00Z",
    "country": "JA",
    "lat": 34.6667,
    "lon": 135.5,
    "risk_score": 1,
    "title": "GDELT Event: 010 in JA",
    "source_url": "https://www.themarketsdaily.com/2026/07/21/daiwa-house-industry-otcmktsdwahy-sees-strong-trading-volume-time-to-buy.html",
    "tag": "neutral"
  },
  {
    "timestamp": "2026-07-21T00:00:00Z",
    "country": "UK",
    "lat": 51.1333,
    "lon": 0.283333,
    "risk_score": 3,
    "title": "GDELT Event: 010 in UK",
    "source_url": "https://londonlovesbusiness.com/south-east-water-warns-it-needs-fresh-funding-after-55m-winter-crisis/",
    "tag": "neutral"
  },
  {
    "timestamp": "2026-07-21T00:00:00Z",
    "country": "PE",
    "lat": -5.2,
    "lon": -80.6333,
    "risk_score": 1,
    "title": "GDELT Event: 010 in PE",
    "source_url": "https://finance.yahoo.com/markets/stocks/articles/cementos-pacasmayo-q2-earnings-call-160514395.html",
    "tag": "neutral"
  },
  {
    "timestamp": "2026-07-21T00:00:00Z",
    "country": "BE",
    "lat": 50.833333,
    "lon": 4.0,
    "risk_score": 3,
    "title": "GDELT Event: 010 in BE",
    "source_url": "https://www.esmmagazine.com/ingredients/acomo-acquires-cublend-to-accelerate-growth-in-food-solutions-segment-317038",
    "tag": "neutral"
  },
  {
    "timestamp": "2026-07-21T00:00:00Z",
    "country": "PE",
    "lat": -5.2,
    "lon": -80.6333,
    "risk_score": 0,
    "title": "GDELT Event: 012 in PE",
    "source_url": "https://finance.yahoo.com/markets/stocks/articles/cementos-pacasmayo-q2-earnings-call-160514395.html",
    "tag": "neutral"
  },
  {
    "timestamp": "2026-07-21T00:00:00Z",
    "country": "US",
    "lat": 39.828175,
    "lon": -98.5795,
    "risk_score": 6,
    "title": "GDELT Event: 017 in US",
    "source_url": "https://www.briefingwire.com/pr/my-rivaaz-spotlights-indian-antique-jewelry-for-south-asian-wedding-style",
    "tag": "neutral"
  },
  {
    "timestamp": "2026-07-21T00:00:00Z",
    "country": "EI",
    "lat": 53.3331,
    "lon": -6.24889,
    "risk_score": 7,
    "title": "GDELT Event: 042 in EI",
    "source_url": "https://www.esmmagazine.com/retail/former-president-of-ireland-to-speak-at-lead-network-conference-317023",
    "tag": "neutral"
  },
  {
    "timestamp": "2026-07-21T00:00:00Z",
    "country": "IN",
    "lat": 19.25,
    "lon": 73.15,
    "risk_score": 8,
    "title": "GDELT Event: 043 in IN",
    "source_url": "https://www.freepressjournal.in/mumbai/kalyan-job-fraud-cheats-130-aspirants-of-53-lakh-with-forged-south-african-visas-police-launch-manhunt",
    "tag": "neutral"
  },
  {
    "timestamp": "2026-07-21T00:00:00Z",
    "country": "IN",
    "lat": 28.6,
    "lon": 77.2,
    "risk_score": 8,
    "title": "GDELT Event: 043 in IN",
    "source_url": "https://www.freepressjournal.in/mumbai/kalyan-job-fraud-cheats-130-aspirants-of-53-lakh-with-forged-south-african-visas-police-launch-manhunt",
    "tag": "neutral"
  },
  {
    "timestamp": "2026-07-21T00:00:00Z",
    "country": "UK",
    "lat": 55.8667,
    "lon": -3.91667,
    "risk_score": 7,
    "title": "GDELT Event: 043 in UK",
    "source_url": "https://www.dailyrecord.co.uk/in-your-area/lanarkshire/north-lanarkshire-jobs-market-shows-37458277",
    "tag": "neutral"
  },
  {
    "timestamp": "2026-07-21T00:00:00Z",
    "country": "US",
    "lat": 42.1497,
    "lon": -74.9384,
    "risk_score": 7,
    "title": "GDELT Event: 043 in US",
    "source_url": "https://tvovermind.com/how-did-james-corden-become-so-hated/",
    "tag": "neutral"
  },
  {
    "timestamp": "2026-07-21T00:00:00Z",
    "country": "BE",
    "lat": 50.833333,
    "lon": 4.0,
    "risk_score": 3,
    "title": "GDELT Event: 051 in BE",
    "source_url": "https://www.esmmagazine.com/ingredients/acomo-acquires-cublend-to-accelerate-growth-in-food-solutions-segment-317038",
    "tag": "neutral"
  },
  {
    "timestamp": "2026-07-21T00:00:00Z",
    "country": "RP",
    "lat": 10.4833,
    "lon": 123.417,
    "risk_score": 2,
    "title": "GDELT Event: 070 in RP",
    "source_url": "https://www.philstar.com/business/2026/07/22/2543686/brown-seals-p23-billion-wind-investment-alternergy",
    "tag": "neutral"
  },
  {
    "timestamp": "2026-07-21T00:00:00Z",
    "country": "RP",
    "lat": 14.6042,
    "lon": 120.982,
    "risk_score": 2,
    "title": "GDELT Event: 071 in RP",
    "source_url": "https://www.manilatimes.net/2026/07/22/tmt-newswire/globenewswire/agzen-wins-croplife-ag-tech-award-of-excellence-and-announces-the-launch-of-200-dealer-locations-as-grower-demand-for-realcoverage-surges/2388764",
    "tag": "neutral"
  },
  {
    "timestamp": "2026-07-21T00:00:00Z",
    "country": "PE",
    "lat": -5.2,
    "lon": -80.6333,
    "risk_score": 1,
    "title": "GDELT Event: 071 in PE",
    "source_url": "https://finance.yahoo.com/markets/stocks/articles/cementos-pacasmayo-q2-earnings-call-160514395.html",
    "tag": "neutral"
  },
  {
    "timestamp": "2026-07-21T00:00:00Z",
    "country": "US",
    "lat": 42.1497,
    "lon": -74.9384,
    "risk_score": 2,
    "title": "GDELT Event: 084 in US",
    "source_url": "https://keyt.com/news/national-world/cnn-national/2026/07/21/discovery-channel-team-locates-pan-am-plane-lost-off-puerto-rican-coast-in-1952-nbcs-today-reports/",
    "tag": "neutral"
  },
  {
    "timestamp": "2026-07-21T00:00:00Z",
    "country": "JA",
    "lat": 35.685,
    "lon": 139.751,
    "risk_score": 0,
    "title": "GDELT Event: 090 in JA",
    "source_url": "https://spacedaily.com/sd-japan-is-quietly-building-a-100-satellite-sovereign-eye-in-the-sky-and-the-sensor-that-makes-it-actually-useful-is-coming-from-a-finnish-startup-nobody-in-tokyo-had-heard-of-five-years-ago/",
    "tag": "neutral"
  },
  {
    "timestamp": "2026-07-21T00:00:00Z",
    "country": "UK",
    "lat": 51.5,
    "lon": -0.116667,
    "risk_score": 1,
    "title": "GDELT Event: 110 in UK",
    "source_url": "https://www.aol.co.uk/articles/britains-chippies-battered-soaring-costs-160100000.html",
    "tag": "neutral"
  },
  {
    "timestamp": "2026-07-21T00:00:00Z",
    "country": "UK",
    "lat": 51.5,
    "lon": -0.116667,
    "risk_score": 3,
    "title": "GDELT Event: 114 in UK",
    "source_url": "https://londonlovesbusiness.com/the-pest-quietly-eating-london-businesses-why-moths-belong-on-your-risk-register/",
    "tag": "neutral"
  },
  {
    "timestamp": "2026-07-21T00:00:00Z",
    "country": "LE",
    "lat": 33.833333,
    "lon": 35.833333,
    "risk_score": 1,
    "title": "GDELT Event: 120 in LE",
    "source_url": "https://www.insideindianabusiness.com/articles/developers-asked-for-proposals-for-leaps-mixed-use-village",
    "tag": "neutral"
  },
  {
    "timestamp": "2026-07-21T00:00:00Z",
    "country": "SA",
    "lat": 25.0,
    "lon": 45.0,
    "risk_score": 4,
    "title": "GDELT Event: 172 in SA",
    "source_url": "https://www.aol.co.uk/articles/donald-trump-sends-chilling-warning-160100000.html",
    "tag": "neutral"
  },
  {
    "timestamp": "2026-07-21T00:00:00Z",
    "country": "YM",
    "lat": 15.3547,
    "lon": 44.2067,
    "risk_score": 4,
    "title": "GDELT Event: 172 in YM",
    "source_url": "https://www.express.co.uk/news/world/2231556/donald-trump-warning-houthis-red-sea",
    "tag": "neutral"
  },
  {
    "timestamp": "2026-07-21T00:00:00Z",
    "country": "SA",
    "lat": 25.0,
    "lon": 45.0,
    "risk_score": 4,
    "title": "GDELT Event: 172 in SA",
    "source_url": "https://www.aol.co.uk/articles/donald-trump-sends-chilling-warning-160100000.html",
    "tag": "neutral"
  },
  {
    "timestamp": "2026-07-21T00:00:00Z",
    "country": "SF",
    "lat": -26.8159,
    "lon": 27.8297,
    "risk_score": 5,
    "title": "GDELT Event: 042 in SF",
    "source_url": "https://theconversation.com/a-sharp-fall-in-gas-supplies-in-2028-threatens-south-africas-economy-how-to-manage-the-fallout-286861",
    "tag": "neutral"
  },
  {
    "timestamp": "2026-07-21T00:00:00Z",
    "country": "CA",
    "lat": 46.3333,
    "lon": -63.5,
    "risk_score": 0,
    "title": "GDELT Event: 036 in CA",
    "source_url": "https://thompsononline.ca/the-thompson-local-news/924887",
    "tag": "neutral"
  },
  {
    "timestamp": "2026-07-21T00:00:00Z",
    "country": "IN",
    "lat": 28.6667,
    "lon": 77.2167,
    "risk_score": 9,
    "title": "GDELT Event: 043 in IN",
    "source_url": "https://www.simcoereformer.ca:443/news/local-news/police-digest-trafficking-charges-laid-after-driver-stopped-near-delhi",
    "tag": "neutral"
  },
  {
    "timestamp": "2026-07-21T00:00:00Z",
    "country": "CH",
    "lat": 39.9289,
    "lon": 116.388,
    "risk_score": 5,
    "title": "GDELT Event: 040 in CH",
    "source_url": "https://www.straitstimes.com/business/china-unleashes-broad-state-support-to-halt-tech-stock-selloff",
    "tag": "neutral"
  },
  {
    "timestamp": "2026-07-21T00:00:00Z",
    "country": "UK",
    "lat": 51.1333,
    "lon": 0.283333,
    "risk_score": 3,
    "title": "GDELT Event: 057 in UK",
    "source_url": "https://londonlovesbusiness.com/south-east-water-warns-it-needs-fresh-funding-after-55m-winter-crisis/",
    "tag": "neutral"
  },
  {
    "timestamp": "2026-07-21T00:00:00Z",
    "country": "KU",
    "lat": 29.3414,
    "lon": 47.9633,
    "risk_score": 41,
    "title": "GDELT Event: 182 in KU",
    "source_url": "https://english.aawsat.com/gulf/5298590-kuwait-summons-iranian-envoy-protest-attack-kuwaiti-tanker",
    "tag": "conflict"
  },
  {
    "timestamp": "2026-07-21T00:00:00Z",
    "country": "US",
    "lat": 39.828175,
    "lon": -98.5795,
    "risk_score": 1,
    "title": "GDELT Event: 073 in US",
    "source_url": "https://www.tickerreport.com/banking-finance/13510577/artificial-intelligence-stocks-to-add-to-your-watchlist-july-21st.html",
    "tag": "neutral"
  },
  {
    "timestamp": "2026-07-21T00:00:00Z",
    "country": "EI",
    "lat": 53.0,
    "lon": -8.0,
    "risk_score": 1,
    "title": "GDELT Event: 014 in EI",
    "source_url": "https://www.liverpoolecho.co.uk/whats-on/whats-on-news/mums-popular-boutique-opening-liverpool-34327330",
    "tag": "neutral"
  },
  {
    "timestamp": "2026-07-21T00:00:00Z",
    "country": "PE",
    "lat": -5.2,
    "lon": -80.6333,
    "risk_score": 0,
    "title": "GDELT Event: 010 in PE",
    "source_url": "https://finance.yahoo.com/markets/stocks/articles/cementos-pacasmayo-q2-earnings-call-160514395.html",
    "tag": "neutral"
  },
  {
    "timestamp": "2026-07-21T00:00:00Z",
    "country": "PE",
    "lat": -12.05,
    "lon": -77.05,
    "risk_score": 1,
    "title": "GDELT Event: 014 in PE",
    "source_url": "https://finance.yahoo.com/markets/stocks/articles/cementos-pacasmayo-q2-earnings-call-160514395.html",
    "tag": "neutral"
  },
  {
    "timestamp": "2026-07-21T00:00:00Z",
    "country": "PE",
    "lat": -12.05,
    "lon": -77.05,
    "risk_score": 0,
    "title": "GDELT Event: 014 in PE",
    "source_url": "https://finance.yahoo.com/markets/stocks/articles/cementos-pacasmayo-q2-earnings-call-160514395.html",
    "tag": "neutral"
  },
  {
    "timestamp": "2026-07-21T00:00:00Z",
    "country": "PE",
    "lat": -5.2,
    "lon": -80.6333,
    "risk_score": 0,
    "title": "GDELT Event: 014 in PE",
    "source_url": "https://finance.yahoo.com/markets/stocks/articles/cementos-pacasmayo-q2-earnings-call-160514395.html",
    "tag": "neutral"
  },
  {
    "timestamp": "2026-07-21T00:00:00Z",
    "country": "RP",
    "lat": 14.6042,
    "lon": 120.982,
    "risk_score": 5,
    "title": "GDELT Event: 043 in RP",
    "source_url": "https://www.philstar.com/business/2026/07/22/2543685/government-anti-cybercrime-unit-eyes-p15-billion-budget-2027",
    "tag": "neutral"
  },
  {
    "timestamp": "2026-07-21T00:00:00Z",
    "country": "US",
    "lat": 39.828175,
    "lon": -98.5795,
    "risk_score": 1,
    "title": "GDELT Event: 017 in US",
    "source_url": "https://www.thedailyreview.com/news/local/20th-annual-tastefull-wine-event-coming-this-saturday/article_40132cf1-6aa8-469e-9442-907d882f3013.html",
    "tag": "neutral"
  },
  {
    "timestamp": "2026-07-21T00:00:00Z",
    "country": "US",
    "lat": 39.828175,
    "lon": -98.5795,
    "risk_score": 1,
    "title": "GDELT Event: 110 in US",
    "source_url": "https://whtc.com/2026/07/21/airlines-decry-double-whammy-from-proposed-eu-carbon-charge-on-some-international-flights/",
    "tag": "neutral"
  },
  {
    "timestamp": "2026-07-21T00:00:00Z",
    "country": "BC",
    "lat": -22.0,
    "lon": 24.0,
    "risk_score": 3,
    "title": "GDELT Event: 120 in BC",
    "source_url": "https://www.sundaystandard.info/poverty-inequality-driving-botswanas-economic-decline-world-bank/",
    "tag": "neutral"
  },
  {
    "timestamp": "2026-07-21T00:00:00Z",
    "country": "CA",
    "lat": 49.75,
    "lon": -56.0333,
    "risk_score": 0,
    "title": "GDELT Event: 010 in CA",
    "source_url": "https://www.crn.com/news/cover-story/ai-coding-upends-the-msp-software-model-how-msps-are-taking-control-of-their-own-tech-stacks",
    "tag": "neutral"
  },
  {
    "timestamp": "2026-07-21T00:00:00Z",
    "country": "CA",
    "lat": 45.4167,
    "lon": -75.7,
    "risk_score": 6,
    "title": "GDELT Event: 040 in CA",
    "source_url": "https://globalnews.ca/news/11973921/trump-50-tariffs/",
    "tag": "neutral"
  },
  {
    "timestamp": "2026-07-21T00:00:00Z",
    "country": "CA",
    "lat": 45.5,
    "lon": -73.5833,
    "risk_score": 1,
    "title": "GDELT Event: 057 in CA",
    "source_url": "https://globalnews.ca/news/11974146/defensive-linemen-lemon-hendrix-back-with-argos/",
    "tag": "neutral"
  },
  {
    "timestamp": "2026-07-21T00:00:00Z",
    "country": "CA",
    "lat": 49.25,
    "lon": -123.133,
    "risk_score": 0,
    "title": "GDELT Event: 090 in CA",
    "source_url": "https://www.crn.com/news/cover-story/ai-coding-upends-the-msp-software-model-how-msps-are-taking-control-of-their-own-tech-stacks",
    "tag": "neutral"
  },
  {
    "timestamp": "2026-07-21T00:00:00Z",
    "country": "CA",
    "lat": 43.6667,
    "lon": -79.4167,
    "risk_score": 18,
    "title": "GDELT Event: 100 in CA",
    "source_url": "https://www.durhamregion.com/news/crime/suspect-linked-to-fatal-pickering-casino-shooting-arrested/article_e1764625-fe16-54f6-b1ff-70e6359d9b81.html",
    "tag": "protest"
  },
  {
    "timestamp": "2026-07-21T00:00:00Z",
    "country": "CA",
    "lat": 43.1,
    "lon": -79.05,
    "risk_score": 55,
    "title": "GDELT Event: 190 in CA",
    "source_url": "https://www.kx947.fm/index.php/community/kx947-events/eventdetail/14543/-/niagara-fiesta-extravaganza",
    "tag": "conflict"
  },
  {
    "timestamp": "2026-07-21T00:00:00Z",
    "country": "CA",
    "lat": 60.0,
    "lon": -96.0,
    "risk_score": 3,
    "title": "GDELT Event: 051 in CA",
    "source_url": "https://www.africanews.com/2026/07/21/40th-edition-of-the-nuits-dafrique-music-festival-comes-to-a-close/",
    "tag": "neutral"
  },
  {
    "timestamp": "2026-07-21T00:00:00Z",
    "country": "CA",
    "lat": 46.3333,
    "lon": -63.5,
    "risk_score": 0,
    "title": "GDELT Event: 036 in CA",
    "source_url": "https://thompsononline.ca/the-thompson-local-news/924887",
    "tag": "neutral"
  },
  {
    "timestamp": "2026-07-21T00:00:00Z",
    "country": "IS",
    "lat": 31.5,
    "lon": 34.75,
    "risk_score": 0,
    "title": "GDELT Event: 172 in IS",
    "source_url": "https://hotaugusta.com/2026/07/21/dj-khaleds-aalam-of-god-misses-july-17-release-date-without-explanation/",
    "tag": "neutral"
  },
  {
    "timestamp": "2026-07-21T00:00:00Z",
    "country": "CA",
    "lat": 46.3333,
    "lon": -63.5,
    "risk_score": 0,
    "title": "GDELT Event: 020 in CA",
    "source_url": "https://thompsononline.ca/the-thompson-local-news/924887",
    "tag": "neutral"
  },
  {
    "timestamp": "2026-07-21T00:00:00Z",
    "country": "CA",
    "lat": 45.4167,
    "lon": -75.7,
    "risk_score": 3,
    "title": "GDELT Event: 017 in CA",
    "source_url": "https://www.intelligencer.ca:443/feature/pembroke-multicultural-festival-global-cultures",
    "tag": "neutral"
  },
  {
    "timestamp": "2026-07-21T00:00:00Z",
    "country": "CA",
    "lat": 45.4167,
    "lon": -75.7,
    "risk_score": 3,
    "title": "GDELT Event: 051 in CA",
    "source_url": "https://www.intelligencer.ca:443/feature/pembroke-multicultural-festival-global-cultures",
    "tag": "neutral"
  },
  {
    "timestamp": "2026-07-21T00:00:00Z",
    "country": "CA",
    "lat": 43.6667,
    "lon": -79.4167,
    "risk_score": 2,
    "title": "GDELT Event: 090 in CA",
    "source_url": "https://globalnews.ca/news/11974117/toronto-july-21-severe-thunderstorm/",
    "tag": "neutral"
  },
  {
    "timestamp": "2026-07-21T00:00:00Z",
    "country": "CA",
    "lat": 45.4167,
    "lon": -75.7,
    "risk_score": 0,
    "title": "GDELT Event: 010 in CA",
    "source_url": "https://www.canadianmanufacturing.com/defence-manufacturing/canada-first-country-to-join-european-next-gen-jet-fighter-program-as-an-observer-320225/",
    "tag": "neutral"
  },
  {
    "timestamp": "2026-07-21T00:00:00Z",
    "country": "CA",
    "lat": 49.75,
    "lon": -56.0333,
    "risk_score": 0,
    "title": "GDELT Event: 010 in CA",
    "source_url": "https://www.crn.com/news/cover-story/ai-coding-upends-the-msp-software-model-how-msps-are-taking-control-of-their-own-tech-stacks",
    "tag": "neutral"
  },
  {
    "timestamp": "2026-07-21T00:00:00Z",
    "country": "US",
    "lat": 39.828175,
    "lon": -98.5795,
    "risk_score": 1,
    "title": "GDELT Event: 163 in US",
    "source_url": "https://globalnews.ca/news/11973921/trump-50-tariffs/",
    "tag": "neutral"
  },
  {
    "timestamp": "2026-07-21T00:00:00Z",
    "country": "CA",
    "lat": 60.0,
    "lon": -96.0,
    "risk_score": 1,
    "title": "GDELT Event: 163 in CA",
    "source_url": "https://globalnews.ca/news/11973921/trump-50-tariffs/",
    "tag": "neutral"
  },
  {
    "timestamp": "2026-07-21T00:00:00Z",
    "country": "CA",
    "lat": 43.6667,
    "lon": -79.4167,
    "risk_score": 2,
    "title": "GDELT Event: 060 in CA",
    "source_url": "https://littleapplepost.com/posts/418d74c5-274e-4036-862c-e7a8c742ec5d",
    "tag": "neutral"
  },
  {
    "timestamp": "2026-07-21T00:00:00Z",
    "country": "RP",
    "lat": 14.6042,
    "lon": 120.982,
    "risk_score": 1,
    "title": "GDELT Event: 020 in RP",
    "source_url": "https://www.straitstimes.com/asia/marco-rubio-to-meet-chinese-fm-wang-yi-on-asean-sidelines-says-us-state-dept",
    "tag": "neutral"
  },
  {
    "timestamp": "2026-07-21T00:00:00Z",
    "country": "AS",
    "lat": -25.0,
    "lon": 135.0,
    "risk_score": 2,
    "title": "GDELT Event: 020 in AS",
    "source_url": "http://www.bignewsnetwork.com/news/279201566/1st-ld-writethru-chinese-fm-calls-for-joint-efforts-with-australia-to-sustain-improving-ties",
    "tag": "neutral"
  },
  {
    "timestamp": "2026-07-21T00:00:00Z",
    "country": "CH",
    "lat": 35.0,
    "lon": 105.0,
    "risk_score": 2,
    "title": "GDELT Event: 020 in CH",
    "source_url": "http://www.bignewsnetwork.com/news/279201566/1st-ld-writethru-chinese-fm-calls-for-joint-efforts-with-australia-to-sustain-improving-ties",
    "tag": "neutral"
  },
  {
    "timestamp": "2026-07-21T00:00:00Z",
    "country": "CH",
    "lat": 35.0,
    "lon": 105.0,
    "risk_score": 2,
    "title": "GDELT Event: 036 in CH",
    "source_url": "http://www.bignewsnetwork.com/news/279201566/1st-ld-writethru-chinese-fm-calls-for-joint-efforts-with-australia-to-sustain-improving-ties",
    "tag": "neutral"
  },
  {
    "timestamp": "2026-07-21T00:00:00Z",
    "country": "CH",
    "lat": 39.9289,
    "lon": 116.388,
    "risk_score": 54,
    "title": "GDELT Event: 190 in CH",
    "source_url": "https://www.eurasiareview.com/21072026-telecommunication-fraud-china-is-a-victim-not-the-villain-oped/",
    "tag": "conflict"
  },
  {
    "timestamp": "2026-07-21T00:00:00Z",
    "country": "CB",
    "lat": 13.0,
    "lon": 105.0,
    "risk_score": 24,
    "title": "GDELT Event: 141 in CB",
    "source_url": "https://www.eurasiareview.com/21072026-telecommunication-fraud-china-is-a-victim-not-the-villain-oped/",
    "tag": "protest"
  },
  {
    "timestamp": "2026-07-21T00:00:00Z",
    "country": "TH",
    "lat": 15.0,
    "lon": 100.0,
    "risk_score": 24,
    "title": "GDELT Event: 141 in TH",
    "source_url": "https://www.eurasiareview.com/21072026-telecommunication-fraud-china-is-a-victim-not-the-villain-oped/",
    "tag": "protest"
  },
  {
    "timestamp": "2026-07-21T00:00:00Z",
    "country": "CH",
    "lat": 39.9289,
    "lon": 116.388,
    "risk_score": 4,
    "title": "GDELT Event: 170 in CH",
    "source_url": "https://www.eurasiareview.com/21072026-telecommunication-fraud-china-is-a-victim-not-the-villain-oped/",
    "tag": "neutral"
  },
  {
    "timestamp": "2026-07-21T00:00:00Z",
    "country": "CU",
    "lat": 23.1167,
    "lon": -81.3667,
    "risk_score": 0,
    "title": "GDELT Event: 032 in CU",
    "source_url": "https://www.eurasiareview.com/21072026-china-strengthens-its-influence-in-cubas-strategic-nickel-sector-analysis/",
    "tag": "neutral"
  },
  {
    "timestamp": "2026-07-21T00:00:00Z",
    "country": "CU",
    "lat": 23.1167,
    "lon": -81.3667,
    "risk_score": 0,
    "title": "GDELT Event: 032 in CU",
    "source_url": "https://www.eurasiareview.com/21072026-china-strengthens-its-influence-in-cubas-strategic-nickel-sector-analysis/",
    "tag": "neutral"
  },
  {
    "timestamp": "2026-07-21T00:00:00Z",
    "country": "CU",
    "lat": 23.1167,
    "lon": -81.3667,
    "risk_score": 0,
    "title": "GDELT Event: 032 in CU",
    "source_url": "https://www.eurasiareview.com/21072026-china-strengthens-its-influence-in-cubas-strategic-nickel-sector-analysis/",
    "tag": "neutral"
  },
  {
    "timestamp": "2026-07-21T00:00:00Z",
    "country": "CH",
    "lat": 39.9289,
    "lon": 116.388,
    "risk_score": 0,
    "title": "GDELT Event: 051 in CH",
    "source_url": "https://www.eurasiareview.com/21072026-china-strengthens-its-influence-in-cubas-strategic-nickel-sector-analysis/",
    "tag": "neutral"
  },
  {
    "timestamp": "2026-07-21T00:00:00Z",
    "country": "CH",
    "lat": 39.9289,
    "lon": 116.388,
    "risk_score": 0,
    "title": "GDELT Event: 051 in CH",
    "source_url": "https://www.eurasiareview.com/21072026-china-strengthens-its-influence-in-cubas-strategic-nickel-sector-analysis/",
    "tag": "neutral"
  },
  {
    "timestamp": "2026-07-21T00:00:00Z",
    "country": "CU",
    "lat": 23.1167,
    "lon": -81.3667,
    "risk_score": 0,
    "title": "GDELT Event: 061 in CU",
    "source_url": "https://www.eurasiareview.com/21072026-china-strengthens-its-influence-in-cubas-strategic-nickel-sector-analysis/",
    "tag": "neutral"
  },
  {
    "timestamp": "2026-07-21T00:00:00Z",
    "country": "CU",
    "lat": 23.1167,
    "lon": -81.3667,
    "risk_score": 0,
    "title": "GDELT Event: 061 in CU",
    "source_url": "https://www.eurasiareview.com/21072026-china-strengthens-its-influence-in-cubas-strategic-nickel-sector-analysis/",
    "tag": "neutral"
  },
  {
    "timestamp": "2026-07-21T00:00:00Z",
    "country": "CH",
    "lat": 39.9289,
    "lon": 116.388,
    "risk_score": 0,
    "title": "GDELT Event: 061 in CH",
    "source_url": "https://www.eurasiareview.com/21072026-china-strengthens-its-influence-in-cubas-strategic-nickel-sector-analysis/",
    "tag": "neutral"
  },
  {
    "timestamp": "2026-07-21T00:00:00Z",
    "country": "US",
    "lat": 39.828175,
    "lon": -98.5795,
    "risk_score": 0,
    "title": "GDELT Event: 061 in US",
    "source_url": "https://www.eurasiareview.com/21072026-china-strengthens-its-influence-in-cubas-strategic-nickel-sector-analysis/",
    "tag": "neutral"
  },
  {
    "timestamp": "2026-07-21T00:00:00Z",
    "country": "US",
    "lat": 39.828175,
    "lon": -98.5795,
    "risk_score": 0,
    "title": "GDELT Event: 061 in US",
    "source_url": "https://www.eurasiareview.com/21072026-china-strengthens-its-influence-in-cubas-strategic-nickel-sector-analysis/",
    "tag": "neutral"
  },
  {
    "timestamp": "2026-07-21T00:00:00Z",
    "country": "CH",
    "lat": 35.0,
    "lon": 105.0,
    "risk_score": 15,
    "title": "GDELT Event: 100 in CH",
    "source_url": "https://www.straitstimes.com/singapore/primary-school-pupils-learn-to-challenge-racial-stereotypes-during-racial-harmony-day-celebrations",
    "tag": "protest"
  },
  {
    "timestamp": "2026-07-21T00:00:00Z",
    "country": "CH",
    "lat": 39.9289,
    "lon": 116.388,
    "risk_score": 4,
    "title": "GDELT Event: 170 in CH",
    "source_url": "https://www.eurasiareview.com/21072026-telecommunication-fraud-china-is-a-victim-not-the-villain-oped/",
    "tag": "neutral"
  },
  {
    "timestamp": "2026-07-21T00:00:00Z",
    "country": "CH",
    "lat": 39.9289,
    "lon": 116.388,
    "risk_score": 4,
    "title": "GDELT Event: 170 in CH",
    "source_url": "https://www.eurasiareview.com/21072026-telecommunication-fraud-china-is-a-victim-not-the-villain-oped/",
    "tag": "neutral"
  },
  {
    "timestamp": "2026-07-21T00:00:00Z",
    "country": "CH",
    "lat": 39.9289,
    "lon": 116.388,
    "risk_score": 4,
    "title": "GDELT Event: 170 in CH",
    "source_url": "https://www.eurasiareview.com/21072026-telecommunication-fraud-china-is-a-victim-not-the-villain-oped/",
    "tag": "neutral"
  },
  {
    "timestamp": "2026-07-21T00:00:00Z",
    "country": "US",
    "lat": 38.8951,
    "lon": -77.0364,
    "risk_score": 6,
    "title": "GDELT Event: 042 in US",
    "source_url": "https://www.straitstimes.com/asia/marco-rubio-to-meet-chinese-fm-wang-yi-on-asean-sidelines-says-us-state-dept",
    "tag": "neutral"
  },
  {
    "timestamp": "2026-07-21T00:00:00Z",
    "country": "CH",
    "lat": 39.9289,
    "lon": 116.388,
    "risk_score": 4,
    "title": "GDELT Event: 050 in CH",
    "source_url": "https://www.eurasiareview.com/21072026-telecommunication-fraud-china-is-a-victim-not-the-villain-oped/",
    "tag": "neutral"
  },
  {
    "timestamp": "2026-07-21T00:00:00Z",
    "country": "US",
    "lat": 39.828175,
    "lon": -98.5795,
    "risk_score": 4,
    "title": "GDELT Event: 050 in US",
    "source_url": "https://www.eurasiareview.com/21072026-telecommunication-fraud-china-is-a-victim-not-the-villain-oped/",
    "tag": "neutral"
  },
  {
    "timestamp": "2026-07-21T00:00:00Z",
    "country": "US",
    "lat": 39.828175,
    "lon": -98.5795,
    "risk_score": 4,
    "title": "GDELT Event: 050 in US",
    "source_url": "https://www.eurasiareview.com/21072026-telecommunication-fraud-china-is-a-victim-not-the-villain-oped/",
    "tag": "neutral"
  },
  {
    "timestamp": "2026-07-21T00:00:00Z",
    "country": "CH",
    "lat": 39.9289,
    "lon": 116.388,
    "risk_score": 6,
    "title": "GDELT Event: 043 in CH",
    "source_url": "https://www.straitstimes.com/asia/marco-rubio-to-meet-chinese-fm-wang-yi-on-asean-sidelines-says-us-state-dept",
    "tag": "neutral"
  },
  {
    "timestamp": "2026-07-21T00:00:00Z",
    "country": "US",
    "lat": 38.8951,
    "lon": -77.0364,
    "risk_score": 6,
    "title": "GDELT Event: 043 in US",
    "source_url": "https://www.straitstimes.com/asia/marco-rubio-to-meet-chinese-fm-wang-yi-on-asean-sidelines-says-us-state-dept",
    "tag": "neutral"
  },
  {
    "timestamp": "2026-07-21T00:00:00Z",
    "country": "CH",
    "lat": 39.9289,
    "lon": 116.388,
    "risk_score": 6,
    "title": "GDELT Event: 043 in CH",
    "source_url": "https://www.straitstimes.com/asia/marco-rubio-to-meet-chinese-fm-wang-yi-on-asean-sidelines-says-us-state-dept",
    "tag": "neutral"
  },
  {
    "timestamp": "2026-07-21T00:00:00Z",
    "country": "CH",
    "lat": 35.0,
    "lon": 105.0,
    "risk_score": 2,
    "title": "GDELT Event: 060 in CH",
    "source_url": "https://www.pressherald.com/2026/07/21/ny-man-sentenced-for-running-massive-illegal-marijuana-grow-in-penobscot-county/",
    "tag": "neutral"
  },
  {
    "timestamp": "2026-07-21T00:00:00Z",
    "country": "CH",
    "lat": 39.9289,
    "lon": 116.388,
    "risk_score": 54,
    "title": "GDELT Event: 190 in CH",
    "source_url": "https://www.eurasiareview.com/21072026-telecommunication-fraud-china-is-a-victim-not-the-villain-oped/",
    "tag": "conflict"
  },
  {
    "timestamp": "2026-07-21T00:00:00Z",
    "country": "CH",
    "lat": 39.9289,
    "lon": 116.388,
    "risk_score": 4,
    "title": "GDELT Event: 172 in CH",
    "source_url": "https://www.eurasiareview.com/21072026-telecommunication-fraud-china-is-a-victim-not-the-villain-oped/",
    "tag": "neutral"
  },
  {
    "timestamp": "2026-07-21T00:00:00Z",
    "country": "CH",
    "lat": 39.9289,
    "lon": 116.388,
    "risk_score": 4,
    "title": "GDELT Event: 172 in CH",
    "source_url": "https://www.eurasiareview.com/21072026-telecommunication-fraud-china-is-a-victim-not-the-villain-oped/",
    "tag": "neutral"
  },
  {
    "timestamp": "2026-07-21T00:00:00Z",
    "country": "CH",
    "lat": 39.9289,
    "lon": 116.388,
    "risk_score": 4,
    "title": "GDELT Event: 172 in CH",
    "source_url": "https://www.eurasiareview.com/21072026-telecommunication-fraud-china-is-a-victim-not-the-villain-oped/",
    "tag": "neutral"
  },
  {
    "timestamp": "2026-07-21T00:00:00Z",
    "country": "SO",
    "lat": 9.0,
    "lon": 46.0,
    "risk_score": 1,
    "title": "GDELT Event: 012 in SO",
    "source_url": "https://www.christianpost.com/news/christian-convert-poisoned-to-death-in-somaliland.html",
    "tag": "neutral"
  },
  {
    "timestamp": "2026-07-21T00:00:00Z",
    "country": "SO",
    "lat": 9.0,
    "lon": 46.0,
    "risk_score": 6,
    "title": "GDELT Event: 043 in SO",
    "source_url": "https://www.christianpost.com/news/christian-convert-poisoned-to-death-in-somaliland.html",
    "tag": "neutral"
  },
  {
    "timestamp": "2026-07-21T00:00:00Z",
    "country": "ET",
    "lat": 8.0,
    "lon": 38.0,
    "risk_score": 6,
    "title": "GDELT Event: 043 in ET",
    "source_url": "https://www.christianpost.com/news/christian-convert-poisoned-to-death-in-somaliland.html",
    "tag": "neutral"
  },
  {
    "timestamp": "2026-07-21T00:00:00Z",
    "country": "SO",
    "lat": 9.0,
    "lon": 46.0,
    "risk_score": 1,
    "title": "GDELT Event: 060 in SO",
    "source_url": "https://www.christianpost.com/news/christian-convert-poisoned-to-death-in-somaliland.html",
    "tag": "neutral"
  },
  {
    "timestamp": "2026-07-21T00:00:00Z",
    "country": "SO",
    "lat": 9.0,
    "lon": 46.0,
    "risk_score": 1,
    "title": "GDELT Event: 012 in SO",
    "source_url": "https://www.christianpost.com/news/christian-convert-poisoned-to-death-in-somaliland.html",
    "tag": "neutral"
  },
  {
    "timestamp": "2026-07-21T00:00:00Z",
    "country": "SO",
    "lat": 9.0,
    "lon": 46.0,
    "risk_score": 1,
    "title": "GDELT Event: 051 in SO",
    "source_url": "https://www.christianpost.com/news/christian-convert-poisoned-to-death-in-somaliland.html",
    "tag": "neutral"
  },
  {
    "timestamp": "2026-07-21T00:00:00Z",
    "country": "US",
    "lat": 40.6461,
    "lon": -111.498,
    "risk_score": 3,
    "title": "GDELT Event: 173 in US",
    "source_url": "https://www.cachevalleydaily.com/obituaries/evelyn-hargrove-falk/article_cf572659-c00c-41c1-a9d3-d1c3d6a5f480.html",
    "tag": "neutral"
  },
  {
    "timestamp": "2026-07-21T00:00:00Z",
    "country": "US",
    "lat": 41.731,
    "lon": -111.84,
    "risk_score": 3,
    "title": "GDELT Event: 173 in US",
    "source_url": "https://www.cachevalleydaily.com/obituaries/evelyn-hargrove-falk/article_cf572659-c00c-41c1-a9d3-d1c3d6a5f480.html",
    "tag": "neutral"
  },
  {
    "timestamp": "2026-07-21T00:00:00Z",
    "country": "US",
    "lat": 41.731,
    "lon": -111.84,
    "risk_score": 3,
    "title": "GDELT Event: 173 in US",
    "source_url": "https://www.cachevalleydaily.com/obituaries/evelyn-hargrove-falk/article_cf572659-c00c-41c1-a9d3-d1c3d6a5f480.html",
    "tag": "neutral"
  },
  {
    "timestamp": "2026-07-21T00:00:00Z",
    "country": "IV",
    "lat": 8.0,
    "lon": -5.0,
    "risk_score": 3,
    "title": "GDELT Event: 051 in IV",
    "source_url": "https://www.africanews.com/2026/07/21/40th-edition-of-the-nuits-dafrique-music-festival-comes-to-a-close/",
    "tag": "neutral"
  },
  {
    "timestamp": "2026-07-21T00:00:00Z",
    "country": "IV",
    "lat": 5.34111,
    "lon": -4.02806,
    "risk_score": 3,
    "title": "GDELT Event: 084 in IV",
    "source_url": "https://www.africanews.com/2026/07/21/six-jailed-ivory-coast-opposition-party-officials-freed-after-months-in-detention/",
    "tag": "neutral"
  },
  {
    "timestamp": "2026-07-21T00:00:00Z",
    "country": "IV",
    "lat": 5.34111,
    "lon": -4.02806,
    "risk_score": 3,
    "title": "GDELT Event: 084 in IV",
    "source_url": "https://www.africanews.com/2026/07/21/six-jailed-ivory-coast-opposition-party-officials-freed-after-months-in-detention/",
    "tag": "neutral"
  },
  {
    "timestamp": "2026-07-21T00:00:00Z",
    "country": "NI",
    "lat": 9.08333,
    "lon": 7.53333,
    "risk_score": 5,
    "title": "GDELT Event: 040 in NI",
    "source_url": "https://www.channelstv.com/2026/07/21/former-kano-governor-kabiru-gaya-set-to-re-join-apc/",
    "tag": "neutral"
  },
  {
    "timestamp": "2026-07-21T00:00:00Z",
    "country": "NI",
    "lat": 9.08333,
    "lon": 7.53333,
    "risk_score": 5,
    "title": "GDELT Event: 040 in NI",
    "source_url": "https://www.channelstv.com/2026/07/21/former-kano-governor-kabiru-gaya-set-to-re-join-apc/",
    "tag": "neutral"
  },
  {
    "timestamp": "2026-07-21T00:00:00Z",
    "country": "NI",
    "lat": 11.9964,
    "lon": 8.51667,
    "risk_score": 5,
    "title": "GDELT Event: 040 in NI",
    "source_url": "https://www.channelstv.com/2026/07/21/former-kano-governor-kabiru-gaya-set-to-re-join-apc/",
    "tag": "neutral"
  },
  {
    "timestamp": "2026-07-21T00:00:00Z",
    "country": "CO",
    "lat": 1.46889,
    "lon": -78.6432,
    "risk_score": 1,
    "title": "GDELT Event: 010 in CO",
    "source_url": "https://www.elciudadano.com/en/petro-takes-legal-action-against-de-la-espriellas-election-seeks-nullification-due-to-algorithmic-vote-manipulation/07/21/",
    "tag": "neutral"
  },
  {
    "timestamp": "2026-07-21T00:00:00Z",
    "country": "CO",
    "lat": 1.46889,
    "lon": -78.6432,
    "risk_score": 6,
    "title": "GDELT Event: 040 in CO",
    "source_url": "https://www.elciudadano.com/en/petro-takes-legal-action-against-de-la-espriellas-election-seeks-nullification-due-to-algorithmic-vote-manipulation/07/21/",
    "tag": "neutral"
  },
  {
    "timestamp": "2026-07-21T00:00:00Z",
    "country": "CO",
    "lat": 1.46889,
    "lon": -78.6432,
    "risk_score": 1,
    "title": "GDELT Event: 090 in CO",
    "source_url": "https://www.elciudadano.com/en/petro-takes-legal-action-against-de-la-espriellas-election-seeks-nullification-due-to-algorithmic-vote-manipulation/07/21/",
    "tag": "neutral"
  },
  {
    "timestamp": "2026-07-21T00:00:00Z",
    "country": "CO",
    "lat": 1.46889,
    "lon": -78.6432,
    "risk_score": 1,
    "title": "GDELT Event: 051 in CO",
    "source_url": "https://www.elciudadano.com/en/petro-takes-legal-action-against-de-la-espriellas-election-seeks-nullification-due-to-algorithmic-vote-manipulation/07/21/",
    "tag": "neutral"
  },
  {
    "timestamp": "2026-07-21T00:00:00Z",
    "country": "CO",
    "lat": 1.46889,
    "lon": -78.6432,
    "risk_score": 1,
    "title": "GDELT Event: 115 in CO",
    "source_url": "https://www.elciudadano.com/en/petro-takes-legal-action-against-de-la-espriellas-election-seeks-nullification-due-to-algorithmic-vote-manipulation/07/21/",
    "tag": "neutral"
  },
  {
    "timestamp": "2026-07-21T00:00:00Z",
    "country": "US",
    "lat": 36.17,
    "lon": -119.746,
    "risk_score": 1,
    "title": "GDELT Event: 115 in US",
    "source_url": "https://www.elciudadano.com/en/petro-takes-legal-action-against-de-la-espriellas-election-seeks-nullification-due-to-algorithmic-vote-manipulation/07/21/",
    "tag": "neutral"
  },
  {
    "timestamp": "2026-07-21T00:00:00Z",
    "country": "US",
    "lat": 36.17,
    "lon": -119.746,
    "risk_score": 1,
    "title": "GDELT Event: 115 in US",
    "source_url": "https://www.elciudadano.com/en/petro-takes-legal-action-against-de-la-espriellas-election-seeks-nullification-due-to-algorithmic-vote-manipulation/07/21/",
    "tag": "neutral"
  },
  {
    "timestamp": "2026-07-21T00:00:00Z",
    "country": "US",
    "lat": 36.17,
    "lon": -119.746,
    "risk_score": 1,
    "title": "GDELT Event: 115 in US",
    "source_url": "https://www.elciudadano.com/en/petro-takes-legal-action-against-de-la-espriellas-election-seeks-nullification-due-to-algorithmic-vote-manipulation/07/21/",
    "tag": "neutral"
  },
  {
    "timestamp": "2026-07-21T00:00:00Z",
    "country": "JE",
    "lat": 49.216667,
    "lon": -2.116667,
    "risk_score": 7,
    "title": "GDELT Event: 012 in JE",
    "source_url": "https://fox56.com/news/local/two-arrested-after-domestic-dispute-involving-metal-rod-in-lycoming-county",
    "tag": "neutral"
  },
  {
    "timestamp": "2026-07-21T00:00:00Z",
    "country": "UK",
    "lat": 51.55,
    "lon": -0.1,
    "risk_score": 3,
    "title": "GDELT Event: 015 in UK",
    "source_url": "https://www.dailystar.co.uk/news/latest-news/dad-two-who-filmed-women-37460196",
    "tag": "neutral"
  },
  {
    "timestamp": "2026-07-21T00:00:00Z",
    "country": "UK",
    "lat": 51.5333,
    "lon": -0.1,
    "risk_score": 3,
    "title": "GDELT Event: 020 in UK",
    "source_url": "https://www.dailystar.co.uk/news/latest-news/dad-two-who-filmed-women-37460196",
    "tag": "neutral"
  },
  {
    "timestamp": "2026-07-21T00:00:00Z",
    "country": "CA",
    "lat": 43.6667,
    "lon": -79.4167,
    "risk_score": 3,
    "title": "GDELT Event: 084 in CA",
    "source_url": "https://www.durhamregion.com/news/crime/suspect-linked-to-fatal-pickering-casino-shooting-arrested/article_e1764625-fe16-54f6-b1ff-70e6359d9b81.html",
    "tag": "neutral"
  },
  {
    "timestamp": "2026-07-21T00:00:00Z",
    "country": "UK",
    "lat": 51.5333,
    "lon": -0.1,
    "risk_score": 3,
    "title": "GDELT Event: 173 in UK",
    "source_url": "https://www.dailystar.co.uk/news/latest-news/dad-two-who-filmed-women-37460196",
    "tag": "neutral"
  },
  {
    "timestamp": "2026-07-21T00:00:00Z",
    "country": "US",
    "lat": 39.4501,
    "lon": -84.5666,
    "risk_score": 4,
    "title": "GDELT Event: 173 in US",
    "source_url": "https://www.wcpo.com/news/local-news/in-your-community/butler-county/public-trust-is-the-victim-in-this-case-former-new-miami-police-chief-sentenced-to-prison",
    "tag": "neutral"
  },
  {
    "timestamp": "2026-07-21T00:00:00Z",
    "country": "US",
    "lat": 33.7748,
    "lon": -84.2963,
    "risk_score": 54,
    "title": "GDELT Event: 193 in US",
    "source_url": "https://unionrecorder.com/2026/07/21/gbi-assisting-in-hancock-county-fatal-shooting-case/",
    "tag": "conflict"
  },
  {
    "timestamp": "2026-07-21T00:00:00Z",
    "country": "IN",
    "lat": 28.6667,
    "lon": 77.2167,
    "risk_score": 9,
    "title": "GDELT Event: 042 in IN",
    "source_url": "https://www.simcoereformer.ca:443/news/local-news/police-digest-trafficking-charges-laid-after-driver-stopped-near-delhi",
    "tag": "neutral"
  },
  {
    "timestamp": "2026-07-21T00:00:00Z",
    "country": "IN",
    "lat": 24.4833,
    "lon": 75.15,
    "risk_score": 5,
    "title": "GDELT Event: 173 in IN",
    "source_url": "https://www.freepressjournal.in/indore/cbn-busts-mp-drug-racket-seizes-1093-kg-poppy-husk",
    "tag": "neutral"
  },
  {
    "timestamp": "2026-07-21T00:00:00Z",
    "country": "IN",
    "lat": 28.6667,
    "lon": 77.2167,
    "risk_score": 4,
    "title": "GDELT Event: 020 in IN",
    "source_url": "https://www.simcoereformer.ca:443/news/local-news/police-digest-trafficking-charges-laid-after-driver-stopped-near-delhi",
    "tag": "neutral"
  },
  {
    "timestamp": "2026-07-21T00:00:00Z",
    "country": "US",
    "lat": 40.314,
    "lon": -74.5089,
    "risk_score": 2,
    "title": "GDELT Event: 020 in US",
    "source_url": "https://nj1015.com/lumberton-walmart-rv-standoff/",
    "tag": "neutral"
  },
  {
    "timestamp": "2026-07-21T00:00:00Z",
    "country": "RS",
    "lat": 55.7522,
    "lon": 37.6156,
    "risk_score": 6,
    "title": "GDELT Event: 045 in RS",
    "source_url": "https://londonlovesbusiness.com/ukraine-new-russian-offensive-zelensky-prepares-defences/",
    "tag": "neutral"
  },
  {
    "timestamp": "2026-07-21T00:00:00Z",
    "country": "KE",
    "lat": -1.28333,
    "lon": 36.8167,
    "risk_score": 7,
    "title": "GDELT Event: 043 in KE",
    "source_url": "https://capitalfm.africa/cctv-forensic-analysis-shows-albert-ojwang-entered-police-station-alive-left-unresponsive/",
    "tag": "neutral"
  },
  {
    "timestamp": "2026-07-21T00:00:00Z",
    "country": "KE",
    "lat": -1.28333,
    "lon": 36.8167,
    "risk_score": 7,
    "title": "GDELT Event: 043 in KE",
    "source_url": "https://capitalfm.africa/cctv-forensic-analysis-shows-albert-ojwang-entered-police-station-alive-left-unresponsive/",
    "tag": "neutral"
  },
  {
    "timestamp": "2026-07-21T00:00:00Z",
    "country": "KE",
    "lat": -1.28333,
    "lon": 36.8167,
    "risk_score": 44,
    "title": "GDELT Event: 180 in KE",
    "source_url": "https://capitalfm.africa/gachagua-dismisses-rutos-anti-goon-order-as-theatrics-claims-police-goon-alliance-is-fueling-violence/",
    "tag": "conflict"
  },
  {
    "timestamp": "2026-07-21T00:00:00Z",
    "country": "KE",
    "lat": -1.38171,
    "lon": 36.7669,
    "risk_score": 7,
    "title": "GDELT Event: 043 in KE",
    "source_url": "https://capitalfm.africa/cctv-forensic-analysis-shows-albert-ojwang-entered-police-station-alive-left-unresponsive/",
    "tag": "neutral"
  },
  {
    "timestamp": "2026-07-21T00:00:00Z",
    "country": "US",
    "lat": 39.3498,
    "lon": -75.5148,
    "risk_score": 3,
    "title": "GDELT Event: 112 in US",
    "source_url": "https://www.nbcdfw.com/news/local/dallas-police-fire-respond-to-man-barricaded-in-home-who-set-house-on-fire/4052144/",
    "tag": "neutral"
  },
  {
    "timestamp": "2026-07-21T00:00:00Z",
    "country": "US",
    "lat": 39.3498,
    "lon": -75.5148,
    "risk_score": 3,
    "title": "GDELT Event: 112 in US",
    "source_url": "https://www.nbcdfw.com/news/local/dallas-police-fire-respond-to-man-barricaded-in-home-who-set-house-on-fire/4052144/",
    "tag": "neutral"
  },
  {
    "timestamp": "2026-07-21T00:00:00Z",
    "country": "RS",
    "lat": 55.7522,
    "lon": 37.6156,
    "risk_score": 6,
    "title": "GDELT Event: 045 in RS",
    "source_url": "https://londonlovesbusiness.com/ukraine-new-russian-offensive-zelensky-prepares-defences/",
    "tag": "neutral"
  },
  {
    "timestamp": "2026-07-21T00:00:00Z",
    "country": "US",
    "lat": 40.3736,
    "lon": -82.7755,
    "risk_score": 4,
    "title": "GDELT Event: 023 in US",
    "source_url": "https://www.wcpo.com/news/local-news/in-your-community/butler-county/public-trust-is-the-victim-in-this-case-former-new-miami-police-chief-sentenced-to-prison",
    "tag": "neutral"
  },
  {
    "timestamp": "2026-07-21T00:00:00Z",
    "country": "US",
    "lat": 39.4348,
    "lon": -84.5369,
    "risk_score": 9,
    "title": "GDELT Event: 043 in US",
    "source_url": "https://www.wcpo.com/news/local-news/in-your-community/butler-county/public-trust-is-the-victim-in-this-case-former-new-miami-police-chief-sentenced-to-prison",
    "tag": "neutral"
  },
  {
    "timestamp": "2026-07-21T00:00:00Z",
    "country": "US",
    "lat": 39.4501,
    "lon": -84.5666,
    "risk_score": 9,
    "title": "GDELT Event: 043 in US",
    "source_url": "https://www.wcpo.com/news/local-news/in-your-community/butler-county/public-trust-is-the-victim-in-this-case-former-new-miami-police-chief-sentenced-to-prison",
    "tag": "neutral"
  },
  {
    "timestamp": "2026-07-21T00:00:00Z",
    "country": "US",
    "lat": 37.768,
    "lon": -78.2057,
    "risk_score": 4,
    "title": "GDELT Event: 090 in US",
    "source_url": "https://www.arlnow.com/2026/07/21/falls-church-man-accused-of-hiding-dead-body-from-police-in-hotel-room/",
    "tag": "neutral"
  },
  {
    "timestamp": "2026-07-21T00:00:00Z",
    "country": "US",
    "lat": 30.3674,
    "lon": -89.0928,
    "risk_score": 5,
    "title": "GDELT Event: 112 in US",
    "source_url": "https://www.wlox.com/2026/07/21/woman-charged-after-shooting-gulfport-apartment-complex-police-say/",
    "tag": "neutral"
  },
  {
    "timestamp": "2026-07-21T00:00:00Z",
    "country": "US",
    "lat": 33.7748,
    "lon": -84.2963,
    "risk_score": 54,
    "title": "GDELT Event: 193 in US",
    "source_url": "https://unionrecorder.com/2026/07/21/gbi-assisting-in-hancock-county-fatal-shooting-case/",
    "tag": "conflict"
  },
  {
    "timestamp": "2026-07-21T00:00:00Z",
    "country": "US",
    "lat": 38.468,
    "lon": -80.9696,
    "risk_score": 0,
    "title": "GDELT Event: 084 in US",
    "source_url": "https://spacedaily.com/k-how-did-a-country-smaller-than-west-virginia-go-from-one-of-the-worst-deforestation-rates-on-earth-to-doubling-its-forest-in-a-single-generation/",
    "tag": "neutral"
  },
  {
    "timestamp": "2026-07-21T00:00:00Z",
    "country": "CS",
    "lat": 10.0,
    "lon": -84.0,
    "risk_score": 0,
    "title": "GDELT Event: 010 in CS",
    "source_url": "https://spacedaily.com/k-how-did-a-country-smaller-than-west-virginia-go-from-one-of-the-worst-deforestation-rates-on-earth-to-doubling-its-forest-in-a-single-generation/",
    "tag": "neutral"
  },
  {
    "timestamp": "2026-07-21T00:00:00Z",
    "country": "KE",
    "lat": -1.28333,
    "lon": 36.8167,
    "risk_score": 4,
    "title": "GDELT Event: 171 in KE",
    "source_url": "https://capitalfm.africa/ruto-says-kenya-has-reached-consensus-against-goonism-orders-security-agencies-to-crack-down-on-criminality/",
    "tag": "neutral"
  },
  {
    "timestamp": "2026-07-21T00:00:00Z",
    "country": "KE",
    "lat": -1.3,
    "lon": 36.9167,
    "risk_score": 4,
    "title": "GDELT Event: 173 in KE",
    "source_url": "https://capitalfm.africa/father-daughter-and-son-in-law-arrested-as-dci-busts-alleged-online-sex-trafficking-ring-in-embakasi-east/",
    "tag": "neutral"
  },
  {
    "timestamp": "2026-07-21T00:00:00Z",
    "country": "UK",
    "lat": 55.7667,
    "lon": -4.16667,
    "risk_score": 55,
    "title": "GDELT Event: 190 in UK",
    "source_url": "https://www.dailyrecord.co.uk/news/scottish-news/criminal-record-teen-beach-killers-37459988",
    "tag": "conflict"
  },
  {
    "timestamp": "2026-07-21T00:00:00Z",
    "country": "UK",
    "lat": 55.8891,
    "lon": -3.56942,
    "risk_score": 55,
    "title": "GDELT Event: 190 in UK",
    "source_url": "https://www.dailyrecord.co.uk/news/scottish-news/criminal-record-teen-beach-killers-37459988",
    "tag": "conflict"
  },
  {
    "timestamp": "2026-07-21T00:00:00Z",
    "country": "UK",
    "lat": 54.0,
    "lon": -4.0,
    "risk_score": 51,
    "title": "GDELT Event: 193 in UK",
    "source_url": "https://www.dailystar.co.uk/news/latest-news/hero-nan-who-fought-sledgehammer-37459704",
    "tag": "conflict"
  },
  {
    "timestamp": "2026-07-21T00:00:00Z",
    "country": "KE",
    "lat": -1.3,
    "lon": 36.9167,
    "risk_score": 4,
    "title": "GDELT Event: 173 in KE",
    "source_url": "https://capitalfm.africa/father-daughter-and-son-in-law-arrested-as-dci-busts-alleged-online-sex-trafficking-ring-in-embakasi-east/",
    "tag": "neutral"
  },
  {
    "timestamp": "2026-07-21T00:00:00Z",
    "country": "CH",
    "lat": 39.9289,
    "lon": 116.388,
    "risk_score": 9,
    "title": "GDELT Event: 042 in CH",
    "source_url": "https://www.eurasiareview.com/21072026-telecommunication-fraud-china-is-a-victim-not-the-villain-oped/",
    "tag": "neutral"
  },
  {
    "timestamp": "2026-07-21T00:00:00Z",
    "country": "JA",
    "lat": 36.0,
    "lon": 138.0,
    "risk_score": 11,
    "title": "GDELT Event: 130 in JA",
    "source_url": "https://economictimes.indiatimes.com/news/politics-and-nation/paintbrushes-and-placards-turn-jantar-mantar-student-protest-into-a-canvas-of-dissent/articleshow/132541295.cms",
    "tag": "neutral"
  },
  {
    "timestamp": "2026-07-21T00:00:00Z",
    "country": "KE",
    "lat": -1.28333,
    "lon": 36.8167,
    "risk_score": 4,
    "title": "GDELT Event: 037 in KE",
    "source_url": "https://capitalfm.africa/gachagua-dismisses-rutos-anti-goon-order-as-theatrics-claims-police-goon-alliance-is-fueling-violence/",
    "tag": "neutral"
  },
  {
    "timestamp": "2026-07-21T00:00:00Z",
    "country": "CU",
    "lat": 23.1167,
    "lon": -81.3667,
    "risk_score": 0,
    "title": "GDELT Event: 032 in CU",
    "source_url": "https://www.eurasiareview.com/21072026-china-strengthens-its-influence-in-cubas-strategic-nickel-sector-analysis/",
    "tag": "neutral"
  },
  {
    "timestamp": "2026-07-21T00:00:00Z",
    "country": "CU",
    "lat": 23.1167,
    "lon": -81.3667,
    "risk_score": 0,
    "title": "GDELT Event: 032 in CU",
    "source_url": "https://www.eurasiareview.com/21072026-china-strengthens-its-influence-in-cubas-strategic-nickel-sector-analysis/",
    "tag": "neutral"
  },
  {
    "timestamp": "2026-07-21T00:00:00Z",
    "country": "CU",
    "lat": 23.1167,
    "lon": -81.3667,
    "risk_score": 0,
    "title": "GDELT Event: 032 in CU",
    "source_url": "https://www.eurasiareview.com/21072026-china-strengthens-its-influence-in-cubas-strategic-nickel-sector-analysis/",
    "tag": "neutral"
  },